header: 
  seq: 264638
  stamp: 
    secs: 1668121492
    nsecs: 710752145
  frame_id: "ti_mmwave"
point_id: 1
x: 0.01953125
y: 0.080078125
z: -0.0078125
range: 0.0871539413929
velocity: 0.0
doppler_bin: 8
bearing: 76.2930374146
intensity: 31.4050807953
---
header: 
  seq: 264639
  stamp: 
    secs: 1668121492
    nsecs: 710818475
  frame_id: "ti_mmwave"
point_id: 2
x: 0.029296875
y: 0.119140625
z: -0.0078125
range: 0.130730912089
velocity: 0.0
doppler_bin: 8
bearing: 76.1849746704
intensity: 30.0689373016
---
header: 
  seq: 264640
  stamp: 
    secs: 1668121492
    nsecs: 710840293
  frame_id: "ti_mmwave"
point_id: 4
x: 0.5859375
y: -0.34765625
z: 0.13671875
range: 0.740808486938
velocity: 0.0
doppler_bin: 8
bearing: -30.6820678711
intensity: 30.4688510895
---
header: 
  seq: 264641
  stamp: 
    secs: 1668121492
    nsecs: 710857162
  frame_id: "ti_mmwave"
point_id: 5
x: 0.6328125
y: -0.345703125
z: 0.15234375
range: 0.784385442734
velocity: 0.0
doppler_bin: 8
bearing: -28.6476173401
intensity: 34.2504501343
---
header: 
  seq: 264642
  stamp: 
    secs: 1668121492
    nsecs: 710872090
  frame_id: "ti_mmwave"
point_id: 6
x: 0.666015625
y: -0.365234375
z: 0.16796875
range: 0.827962458134
velocity: 0.0
doppler_bin: 8
bearing: -28.7397975922
intensity: 34.1962547302
---
header: 
  seq: 264643
  stamp: 
    secs: 1668121492
    nsecs: 710885642
  frame_id: "ti_mmwave"
point_id: 7
x: 0.6953125
y: -0.3828125
z: 0.19921875
range: 0.871539413929
velocity: 0.0
doppler_bin: 8
bearing: -28.8355007172
intensity: 29.9651165009
---
header: 
  seq: 264644
  stamp: 
    secs: 1668121492
    nsecs: 710898847
  frame_id: "ti_mmwave"
point_id: 8
x: 0.939453125
y: -0.0
z: -0.033203125
range: 1.00227034092
velocity: 0.0
doppler_bin: 8
bearing: -0.0
intensity: 27.8103694916
---
header: 
  seq: 264645
  stamp: 
    secs: 1668121492
    nsecs: 710912433
  frame_id: "ti_mmwave"
point_id: 9
x: 0.9765625
y: -0.0
z: -0.09765625
range: 1.04584729671
velocity: 0.0
doppler_bin: 8
bearing: -0.0
intensity: 25.7863922119
---
header: 
  seq: 264646
  stamp: 
    secs: 1668121492
    nsecs: 710920208
  frame_id: "ti_mmwave"
point_id: 10
x: 7.92578125
y: -0.0
z: -0.39453125
range: 8.45393276215
velocity: 0.0
doppler_bin: 8
bearing: -0.0
intensity: 22.8780174255
---
header: 
  seq: 264647
  stamp: 
    secs: 1668121492
    nsecs: 710927334
  frame_id: "ti_mmwave"
point_id: 11
x: 7.9609375
y: -0.0
z: -0.5078125
range: 8.49750900269
velocity: 0.0
doppler_bin: 8
bearing: -0.0
intensity: 27.9309158325
---
header: 
  seq: 264648
  stamp: 
    secs: 1668121492
    nsecs: 710934048
  frame_id: "ti_mmwave"
point_id: 12
x: 8.00390625
y: -0.0
z: -0.45703125
range: 8.5410861969
velocity: 0.0
doppler_bin: 8
bearing: -0.0
intensity: 29.2788333893
---
header: 
  seq: 264649
  stamp: 
    secs: 1668121492
    nsecs: 710940775
  frame_id: "ti_mmwave"
point_id: 13
x: 8.056640625
y: -0.0
z: -0.169921875
range: 8.58466339111
velocity: 0.0
doppler_bin: 8
bearing: -0.0
intensity: 28.1888542175
---
header: 
  seq: 264650
  stamp: 
    secs: 1668121492
    nsecs: 710948023
  frame_id: "ti_mmwave"
point_id: 14
x: 8.09375
y: -0.25390625
z: 0.208984375
range: 8.62824058533
velocity: 0.0
doppler_bin: 8
bearing: -1.79681682587
intensity: 26.0530509949
---
header: 
  seq: 264651
  stamp: 
    secs: 1668121492
    nsecs: 710954755
  frame_id: "ti_mmwave"
point_id: 15
x: 8.13671875
y: -0.25390625
z: 0.021484375
range: 8.67181682587
velocity: 0.0
doppler_bin: 8
bearing: -1.78733432293
intensity: 23.9445171356
---
header: 
  seq: 264652
  stamp: 
    secs: 1668121492
    nsecs: 710961650
  frame_id: "ti_mmwave"
point_id: 16
x: 0.041015625
y: -0.001953125
z: 0.0
range: 0.0435769706964
velocity: 0.0
doppler_bin: 8
bearing: -2.7263109684
intensity: 27.8103694916
---
header: 
  seq: 264653
  stamp: 
    secs: 1668121492
    nsecs: 710968391
  frame_id: "ti_mmwave"
point_id: 17
x: 0.08203125
y: -0.0078125
z: 0.00390625
range: 0.0871539413929
velocity: 0.0
doppler_bin: 8
bearing: -5.44033241272
intensity: 29.5375976562
---
header: 
  seq: 264654
  stamp: 
    secs: 1668121492
    nsecs: 710976131
  frame_id: "ti_mmwave"
point_id: 19
x: 0.041015625
y: 0.158203125
z: -0.00390625
range: 0.174307882786
velocity: 0.0
doppler_bin: 8
bearing: 75.4655456543
intensity: 26.211763382
---
header: 
  seq: 264655
  stamp: 
    secs: 1668121492
    nsecs: 740258380
  frame_id: "ti_mmwave"
point_id: 1
x: 0.01953125
y: 0.080078125
z: -0.0078125
range: 0.0871539413929
velocity: 0.0
doppler_bin: 8
bearing: 76.2930374146
intensity: 31.4082221985
---
header: 
  seq: 264656
  stamp: 
    secs: 1668121492
    nsecs: 740295763
  frame_id: "ti_mmwave"
point_id: 2
x: 0.029296875
y: 0.119140625
z: -0.0078125
range: 0.130730912089
velocity: 0.0
doppler_bin: 8
bearing: 76.1849746704
intensity: 30.0732097626
---
header: 
  seq: 264657
  stamp: 
    secs: 1668121492
    nsecs: 740320701
  frame_id: "ti_mmwave"
point_id: 4
x: 0.59765625
y: -0.326171875
z: 0.140625
range: 0.740808486938
velocity: 0.0
doppler_bin: 8
bearing: -28.6235752106
intensity: 30.4178733826
---
header: 
  seq: 264658
  stamp: 
    secs: 1668121492
    nsecs: 740412156
  frame_id: "ti_mmwave"
point_id: 5
x: 0.6328125
y: -0.345703125
z: 0.15234375
range: 0.784385442734
velocity: 0.0
doppler_bin: 8
bearing: -28.6476173401
intensity: 34.1995582581
---
header: 
  seq: 264659
  stamp: 
    secs: 1668121492
    nsecs: 740434656
  frame_id: "ti_mmwave"
point_id: 6
x: 0.666015625
y: -0.365234375
z: 0.16796875
range: 0.827962458134
velocity: 0.0
doppler_bin: 8
bearing: -28.7397975922
intensity: 33.9707069397
---
header: 
  seq: 264660
  stamp: 
    secs: 1668121492
    nsecs: 740447583
  frame_id: "ti_mmwave"
point_id: 7
x: 0.697265625
y: -0.3828125
z: 0.193359375
range: 0.871539413929
velocity: 0.0
doppler_bin: 8
bearing: -28.7676506042
intensity: 29.6848297119
---
header: 
  seq: 264661
  stamp: 
    secs: 1668121492
    nsecs: 740485996
  frame_id: "ti_mmwave"
point_id: 8
x: 0.94140625
y: -0.0
z: -0.015625
range: 1.00227034092
velocity: 0.0
doppler_bin: 8
bearing: -0.0
intensity: 27.5127906799
---
header: 
  seq: 264662
  stamp: 
    secs: 1668121492
    nsecs: 740493925
  frame_id: "ti_mmwave"
point_id: 9
x: 0.978515625
y: -0.0
z: -0.080078125
range: 1.04584729671
velocity: 0.0
doppler_bin: 8
bearing: -0.0
intensity: 25.6229286194
---
header: 
  seq: 264663
  stamp: 
    secs: 1668121492
    nsecs: 740524925
  frame_id: "ti_mmwave"
point_id: 10
x: 7.923828125
y: -0.0
z: -0.4453125
range: 8.45393276215
velocity: 0.0
doppler_bin: 8
bearing: -0.0
intensity: 23.0749607086
---
header: 
  seq: 264664
  stamp: 
    secs: 1668121492
    nsecs: 740541198
  frame_id: "ti_mmwave"
point_id: 11
x: 7.95703125
y: -0.0
z: -0.560546875
range: 8.49750900269
velocity: 0.0
doppler_bin: 8
bearing: -0.0
intensity: 28.2151355743
---
header: 
  seq: 264665
  stamp: 
    secs: 1668121492
    nsecs: 740572456
  frame_id: "ti_mmwave"
point_id: 12
x: 8.0
y: -0.0
z: -0.52734375
range: 8.5410861969
velocity: 0.0
doppler_bin: 8
bearing: -0.0
intensity: 29.6189556122
---
header: 
  seq: 264666
  stamp: 
    secs: 1668121492
    nsecs: 740580383
  frame_id: "ti_mmwave"
point_id: 13
x: 8.0546875
y: -0.0
z: -0.25
range: 8.58466339111
velocity: 0.0
doppler_bin: 8
bearing: -0.0
intensity: 28.4757270813
---
header: 
  seq: 264667
  stamp: 
    secs: 1668121492
    nsecs: 740609853
  frame_id: "ti_mmwave"
point_id: 14
x: 8.09375
y: -0.25390625
z: 0.12890625
range: 8.62824058533
velocity: 0.0
doppler_bin: 8
bearing: -1.79681682587
intensity: 26.1384181976
---
header: 
  seq: 264668
  stamp: 
    secs: 1668121492
    nsecs: 740626342
  frame_id: "ti_mmwave"
point_id: 15
x: 8.13671875
y: -0.25390625
z: -0.08984375
range: 8.67181682587
velocity: 0.0
doppler_bin: 8
bearing: -1.78733432293
intensity: 23.9619941711
---
header: 
  seq: 264669
  stamp: 
    secs: 1668121492
    nsecs: 740657616
  frame_id: "ti_mmwave"
point_id: 16
x: 0.041015625
y: -0.001953125
z: 0.0
range: 0.0435769706964
velocity: 0.0
doppler_bin: 8
bearing: -2.7263109684
intensity: 27.8103694916
---
header: 
  seq: 264670
  stamp: 
    secs: 1668121492
    nsecs: 740668048
  frame_id: "ti_mmwave"
point_id: 17
x: 0.08203125
y: -0.0078125
z: 0.00390625
range: 0.0871539413929
velocity: 0.0
doppler_bin: 8
bearing: -5.44033241272
intensity: 29.5424251556
---
header: 
  seq: 264671
  stamp: 
    secs: 1668121492
    nsecs: 740691527
  frame_id: "ti_mmwave"
point_id: 19
x: 0.041015625
y: 0.158203125
z: -0.00390625
range: 0.174307882786
velocity: 0.0
doppler_bin: 8
bearing: 75.4655456543
intensity: 26.211763382
---
header: 
  seq: 264672
  stamp: 
    secs: 1668121492
    nsecs: 770339261
  frame_id: "ti_mmwave"
point_id: 1
x: 0.01953125
y: 0.080078125
z: -0.0078125
range: 0.0871539413929
velocity: 0.0
doppler_bin: 8
bearing: 76.2930374146
intensity: 31.4050807953
---
header: 
  seq: 264673
  stamp: 
    secs: 1668121492
    nsecs: 770375403
  frame_id: "ti_mmwave"
point_id: 2
x: 0.029296875
y: 0.119140625
z: -0.0078125
range: 0.130730912089
velocity: 0.0
doppler_bin: 8
bearing: 76.1849746704
intensity: 30.0732097626
---
header: 
  seq: 264674
  stamp: 
    secs: 1668121492
    nsecs: 770381592
  frame_id: "ti_mmwave"
point_id: 4
x: 0.59375
y: -0.326171875
z: 0.15625
range: 0.740808486938
velocity: 0.0
doppler_bin: 8
bearing: -28.7818431854
intensity: 30.2530593872
---
header: 
  seq: 264675
  stamp: 
    secs: 1668121492
    nsecs: 770385908
  frame_id: "ti_mmwave"
point_id: 5
x: 0.630859375
y: -0.345703125
z: 0.15625
range: 0.784385442734
velocity: 0.0
doppler_bin: 8
bearing: -28.7221946716
intensity: 34.1530723572
---
header: 
  seq: 264676
  stamp: 
    secs: 1668121492
    nsecs: 770389753
  frame_id: "ti_mmwave"
point_id: 6
x: 0.666015625
y: -0.365234375
z: 0.166015625
range: 0.827962458134
velocity: 0.0
doppler_bin: 8
bearing: -28.7397975922
intensity: 33.9532623291
---
header: 
  seq: 264677
  stamp: 
    secs: 1668121492
    nsecs: 770396854
  frame_id: "ti_mmwave"
point_id: 7
x: 0.69921875
y: -0.3828125
z: 0.185546875
range: 0.871539413929
velocity: 0.0
doppler_bin: 8
bearing: -28.7000904083
intensity: 29.6425971985
---
header: 
  seq: 264678
  stamp: 
    secs: 1668121492
    nsecs: 770456316
  frame_id: "ti_mmwave"
point_id: 8
x: 0.939453125
y: -0.029296875
z: -0.017578125
range: 1.00227034092
velocity: 0.0
doppler_bin: 8
bearing: -1.7861918211
intensity: 27.2997436523
---
header: 
  seq: 264679
  stamp: 
    secs: 1668121492
    nsecs: 770470578
  frame_id: "ti_mmwave"
point_id: 9
x: 0.98046875
y: -0.03125
z: -0.05859375
range: 1.04584729671
velocity: 0.0
doppler_bin: 8
bearing: -1.82554244995
intensity: 25.6110134125
---
header: 
  seq: 264680
  stamp: 
    secs: 1668121492
    nsecs: 770480181
  frame_id: "ti_mmwave"
point_id: 10
x: 7.91796875
y: -0.0
z: -0.537109375
range: 8.45393276215
velocity: 0.0
doppler_bin: 8
bearing: -0.0
intensity: 23.138671875
---
header: 
  seq: 264681
  stamp: 
    secs: 1668121492
    nsecs: 770486905
  frame_id: "ti_mmwave"
point_id: 11
x: 7.953125
y: -0.0
z: -0.611328125
range: 8.49750900269
velocity: 0.0
doppler_bin: 8
bearing: -0.0
intensity: 28.3632411957
---
header: 
  seq: 264682
  stamp: 
    secs: 1668121492
    nsecs: 770493568
  frame_id: "ti_mmwave"
point_id: 12
x: 7.998046875
y: -0.0
z: -0.5703125
range: 8.5410861969
velocity: 0.0
doppler_bin: 8
bearing: -0.0
intensity: 29.8181858063
---
header: 
  seq: 264683
  stamp: 
    secs: 1668121492
    nsecs: 770511968
  frame_id: "ti_mmwave"
point_id: 13
x: 8.052734375
y: -0.0
z: -0.3203125
range: 8.58466339111
velocity: 0.0
doppler_bin: 8
bearing: -0.0
intensity: 28.6628742218
---
header: 
  seq: 264684
  stamp: 
    secs: 1668121492
    nsecs: 770518249
  frame_id: "ti_mmwave"
point_id: 14
x: 8.095703125
y: -0.25390625
z: 0.060546875
range: 8.62824058533
velocity: 0.0
doppler_bin: 8
bearing: -1.79638373852
intensity: 26.211763382
---
header: 
  seq: 264685
  stamp: 
    secs: 1668121492
    nsecs: 770523504
  frame_id: "ti_mmwave"
point_id: 15
x: 8.134765625
y: -0.25390625
z: -0.123046875
range: 8.67181682587
velocity: 0.0
doppler_bin: 8
bearing: -1.78776311874
intensity: 23.9269695282
---
header: 
  seq: 264686
  stamp: 
    secs: 1668121492
    nsecs: 770527437
  frame_id: "ti_mmwave"
point_id: 16
x: 0.041015625
y: -0.001953125
z: 0.0
range: 0.0435769706964
velocity: 0.0
doppler_bin: 8
bearing: -2.7263109684
intensity: 27.8103694916
---
header: 
  seq: 264687
  stamp: 
    secs: 1668121492
    nsecs: 770535914
  frame_id: "ti_mmwave"
point_id: 17
x: 0.08203125
y: -0.0078125
z: 0.00390625
range: 0.0871539413929
velocity: 0.0
doppler_bin: 8
bearing: -5.44033241272
intensity: 29.5375976562
---
header: 
  seq: 264688
  stamp: 
    secs: 1668121492
    nsecs: 770544243
  frame_id: "ti_mmwave"
point_id: 19
x: 0.041015625
y: 0.158203125
z: -0.00390625
range: 0.174307882786
velocity: 0.0
doppler_bin: 8
bearing: 75.4655456543
intensity: 26.211763382
---
header: 
  seq: 264689
  stamp: 
    secs: 1668121492
    nsecs: 815278302
  frame_id: "ti_mmwave"
point_id: 1
x: 0.01953125
y: 0.080078125
z: -0.0078125
range: 0.0871539413929
velocity: 0.0
doppler_bin: 8
bearing: 76.2930374146
intensity: 31.4050807953
---
header: 
  seq: 264690
  stamp: 
    secs: 1668121492
    nsecs: 815363362
  frame_id: "ti_mmwave"
point_id: 2
x: 0.029296875
y: 0.119140625
z: -0.0078125
range: 0.130730912089
velocity: 0.0
doppler_bin: 8
bearing: 76.1849746704
intensity: 30.0689373016
---
header: 
  seq: 264691
  stamp: 
    secs: 1668121492
    nsecs: 815387821
  frame_id: "ti_mmwave"
point_id: 3
x: 0.59375
y: -0.326171875
z: 0.158203125
range: 0.740808486938
velocity: 0.0
doppler_bin: 8
bearing: -28.7818431854
intensity: 29.876663208
---
header: 
  seq: 264692
  stamp: 
    secs: 1668121492
    nsecs: 815435598
  frame_id: "ti_mmwave"
point_id: 4
x: 0.630859375
y: -0.345703125
z: 0.15625
range: 0.784385442734
velocity: 0.0
doppler_bin: 8
bearing: -28.7221946716
intensity: 33.8327674866
---
header: 
  seq: 264693
  stamp: 
    secs: 1668121492
    nsecs: 815456288
  frame_id: "ti_mmwave"
point_id: 5
x: 0.654296875
y: -0.388671875
z: 0.16015625
range: 0.827962458134
velocity: 0.0
doppler_bin: 8
bearing: -30.7115764618
intensity: 33.6847267151
---
header: 
  seq: 264694
  stamp: 
    secs: 1668121492
    nsecs: 815474877
  frame_id: "ti_mmwave"
point_id: 6
x: 0.701171875
y: -0.3828125
z: 0.173828125
range: 0.871539413929
velocity: 0.0
doppler_bin: 8
bearing: -28.632818222
intensity: 29.4200801849
---
header: 
  seq: 264695
  stamp: 
    secs: 1668121492
    nsecs: 815494629
  frame_id: "ti_mmwave"
point_id: 7
x: 0.935546875
y: -0.05859375
z: -0.07421875
range: 1.00227034092
velocity: 0.0
doppler_bin: 8
bearing: -3.58378148079
intensity: 27.0500793457
---
header: 
  seq: 264696
  stamp: 
    secs: 1668121492
    nsecs: 815504558
  frame_id: "ti_mmwave"
point_id: 8
x: 0.9765625
y: -0.03125
z: -0.091796875
range: 1.04584729671
velocity: 0.0
doppler_bin: 8
bearing: -1.83283960819
intensity: 26.170003891
---
header: 
  seq: 264697
  stamp: 
    secs: 1668121492
    nsecs: 815512575
  frame_id: "ti_mmwave"
point_id: 9
x: 7.91796875
y: -0.0
z: -0.521484375
range: 8.45393276215
velocity: 0.0
doppler_bin: 8
bearing: -0.0
intensity: 23.1597042084
---
header: 
  seq: 264698
  stamp: 
    secs: 1668121492
    nsecs: 815520610
  frame_id: "ti_mmwave"
point_id: 10
x: 7.951171875
y: -0.0
z: -0.630859375
range: 8.49750900269
velocity: 0.0
doppler_bin: 8
bearing: -0.0
intensity: 28.4633712769
---
header: 
  seq: 264699
  stamp: 
    secs: 1668121492
    nsecs: 815609850
  frame_id: "ti_mmwave"
point_id: 11
x: 7.994140625
y: -0.0
z: -0.607421875
range: 8.5410861969
velocity: 0.0
doppler_bin: 8
bearing: -0.0
intensity: 29.9431724548
---
header: 
  seq: 264700
  stamp: 
    secs: 1668121492
    nsecs: 815632288
  frame_id: "ti_mmwave"
point_id: 12
x: 8.05078125
y: -0.0
z: -0.369140625
range: 8.58466339111
velocity: 0.0
doppler_bin: 8
bearing: -0.0
intensity: 28.767950058
---
header: 
  seq: 264701
  stamp: 
    secs: 1668121492
    nsecs: 815648128
  frame_id: "ti_mmwave"
point_id: 13
x: 8.099609375
y: -0.0
z: -0.033203125
range: 8.62824058533
velocity: 0.0
doppler_bin: 8
bearing: -0.0
intensity: 26.2221393585
---
header: 
  seq: 264702
  stamp: 
    secs: 1668121492
    nsecs: 815663136
  frame_id: "ti_mmwave"
point_id: 14
x: 8.134765625
y: -0.25390625
z: -0.12890625
range: 8.67181682587
velocity: 0.0
doppler_bin: 8
bearing: -1.78776311874
intensity: 23.9269695282
---
header: 
  seq: 264703
  stamp: 
    secs: 1668121492
    nsecs: 815678715
  frame_id: "ti_mmwave"
point_id: 15
x: 0.041015625
y: -0.001953125
z: 0.0
range: 0.0435769706964
velocity: 0.0
doppler_bin: 8
bearing: -2.7263109684
intensity: 27.8175544739
---
header: 
  seq: 264704
  stamp: 
    secs: 1668121492
    nsecs: 815694096
  frame_id: "ti_mmwave"
point_id: 16
x: 0.08203125
y: -0.0078125
z: 0.00390625
range: 0.0871539413929
velocity: 0.0
doppler_bin: 8
bearing: -5.44033241272
intensity: 29.5424251556
---
header: 
  seq: 264705
  stamp: 
    secs: 1668121492
    nsecs: 845236426
  frame_id: "ti_mmwave"
point_id: 1
x: 0.01953125
y: 0.080078125
z: -0.0078125
range: 0.0871539413929
velocity: 0.0
doppler_bin: 8
bearing: 76.2930374146
intensity: 31.4019374847
---
header: 
  seq: 264706
  stamp: 
    secs: 1668121492
    nsecs: 845288589
  frame_id: "ti_mmwave"
point_id: 2
x: 0.029296875
y: 0.119140625
z: -0.0078125
range: 0.130730912089
velocity: 0.0
doppler_bin: 8
bearing: 76.1849746704
intensity: 30.064661026
---
header: 
  seq: 264707
  stamp: 
    secs: 1668121492
    nsecs: 845323324
  frame_id: "ti_mmwave"
point_id: 3
x: 0.5859375
y: -0.34765625
z: 0.140625
range: 0.740808486938
velocity: 0.0
doppler_bin: 8
bearing: -30.6820678711
intensity: 29.609462738
---
header: 
  seq: 264708
  stamp: 
    secs: 1668121492
    nsecs: 845332298
  frame_id: "ti_mmwave"
point_id: 4
x: 0.619140625
y: -0.3671875
z: 0.15234375
range: 0.784385442734
velocity: 0.0
doppler_bin: 8
bearing: -30.6704826355
intensity: 33.5640830994
---
header: 
  seq: 264709
  stamp: 
    secs: 1668121492
    nsecs: 845339431
  frame_id: "ti_mmwave"
point_id: 5
x: 0.666015625
y: -0.365234375
z: 0.1640625
range: 0.827962458134
velocity: 0.0
doppler_bin: 8
bearing: -28.7397975922
intensity: 33.4064254761
---
header: 
  seq: 264710
  stamp: 
    secs: 1668121492
    nsecs: 845346073
  frame_id: "ti_mmwave"
point_id: 6
x: 0.69921875
y: -0.3828125
z: 0.1796875
range: 0.871539413929
velocity: 0.0
doppler_bin: 8
bearing: -28.7000904083
intensity: 29.2012329102
---
header: 
  seq: 264711
  stamp: 
    secs: 1668121492
    nsecs: 845353039
  frame_id: "ti_mmwave"
point_id: 7
x: 0.9375
y: -0.0
z: -0.0703125
range: 1.00227034092
velocity: 0.0
doppler_bin: 8
bearing: -0.0
intensity: 27.481880188
---
header: 
  seq: 264712
  stamp: 
    secs: 1668121492
    nsecs: 845359855
  frame_id: "ti_mmwave"
point_id: 8
x: 0.978515625
y: -0.03125
z: -0.0703125
range: 1.04584729671
velocity: 0.0
doppler_bin: 8
bearing: -1.82918357849
intensity: 26.570558548
---
header: 
  seq: 264713
  stamp: 
    secs: 1668121492
    nsecs: 845372176
  frame_id: "ti_mmwave"
point_id: 9
x: 7.91015625
y: 0.248046875
z: -0.583984375
range: 8.45393276215
velocity: 0.0
doppler_bin: 8
bearing: 1.79609405994
intensity: 23.138671875
---
header: 
  seq: 264714
  stamp: 
    secs: 1668121492
    nsecs: 845380219
  frame_id: "ti_mmwave"
point_id: 10
x: 7.94921875
y: -0.0
z: -0.66015625
range: 8.49750900269
velocity: 0.0
doppler_bin: 8
bearing: -0.0
intensity: 28.4633712769
---
header: 
  seq: 264715
  stamp: 
    secs: 1668121492
    nsecs: 845387107
  frame_id: "ti_mmwave"
point_id: 11
x: 7.9921875
y: -0.0
z: -0.626953125
range: 8.5410861969
velocity: 0.0
doppler_bin: 8
bearing: -0.0
intensity: 29.9519634247
---
header: 
  seq: 264716
  stamp: 
    secs: 1668121492
    nsecs: 845393118
  frame_id: "ti_mmwave"
point_id: 12
x: 8.05078125
y: -0.0
z: -0.375
range: 8.58466339111
velocity: 0.0
doppler_bin: 8
bearing: -0.0
intensity: 28.762178421
---
header: 
  seq: 264717
  stamp: 
    secs: 1668121492
    nsecs: 845399626
  frame_id: "ti_mmwave"
point_id: 13
x: 8.099609375
y: -0.0
z: -0.017578125
range: 8.62824058533
velocity: 0.0
doppler_bin: 8
bearing: -0.0
intensity: 26.1909332275
---
header: 
  seq: 264718
  stamp: 
    secs: 1668121492
    nsecs: 845406026
  frame_id: "ti_mmwave"
point_id: 14
x: 8.134765625
y: -0.25390625
z: -0.171875
range: 8.67181682587
velocity: 0.0
doppler_bin: 8
bearing: -1.78776311874
intensity: 23.8560619354
---
header: 
  seq: 264719
  stamp: 
    secs: 1668121492
    nsecs: 845412567
  frame_id: "ti_mmwave"
point_id: 15
x: 0.041015625
y: -0.001953125
z: 0.0
range: 0.0435769706964
velocity: 0.0
doppler_bin: 8
bearing: -2.7263109684
intensity: 27.8031730652
---
header: 
  seq: 264720
  stamp: 
    secs: 1668121492
    nsecs: 845418890
  frame_id: "ti_mmwave"
point_id: 16
x: 0.08203125
y: -0.0078125
z: 0.00390625
range: 0.0871539413929
velocity: 0.0
doppler_bin: 8
bearing: -5.44033241272
intensity: 29.5327625275
---
header: 
  seq: 264721
  stamp: 
    secs: 1668121492
    nsecs: 845426251
  frame_id: "ti_mmwave"
point_id: 18
x: 0.9375
y: -0.05859375
z: -0.04296875
range: 1.00227034092
velocity: 0.0
doppler_bin: 8
bearing: -3.57633447647
intensity: 27.4507484436
---
header: 
  seq: 264722
  stamp: 
    secs: 1668121492
    nsecs: 875337216
  frame_id: "ti_mmwave"
point_id: 1
x: 0.01953125
y: 0.080078125
z: -0.0078125
range: 0.0871539413929
velocity: 0.0
doppler_bin: 8
bearing: 76.2930374146
intensity: 31.4019374847
---
header: 
  seq: 264723
  stamp: 
    secs: 1668121492
    nsecs: 875419041
  frame_id: "ti_mmwave"
point_id: 2
x: 0.029296875
y: 0.119140625
z: -0.0078125
range: 0.130730912089
velocity: 0.0
doppler_bin: 8
bearing: 76.1849746704
intensity: 30.0689373016
---
header: 
  seq: 264724
  stamp: 
    secs: 1668121492
    nsecs: 875437909
  frame_id: "ti_mmwave"
point_id: 3
x: 0.587890625
y: -0.34765625
z: 0.134765625
range: 0.740808486938
velocity: 0.0
doppler_bin: 8
bearing: -30.5984611511
intensity: 29.6142101288
---
header: 
  seq: 264725
  stamp: 
    secs: 1668121492
    nsecs: 875452401
  frame_id: "ti_mmwave"
point_id: 4
x: 0.6328125
y: -0.345703125
z: 0.154296875
range: 0.784385442734
velocity: 0.0
doppler_bin: 8
bearing: -28.6476173401
intensity: 33.3825721741
---
header: 
  seq: 264726
  stamp: 
    secs: 1668121492
    nsecs: 875466685
  frame_id: "ti_mmwave"
point_id: 5
x: 0.666015625
y: -0.365234375
z: 0.16796875
range: 0.827962458134
velocity: 0.0
doppler_bin: 8
bearing: -28.7397975922
intensity: 33.2242622375
---
header: 
  seq: 264727
  stamp: 
    secs: 1668121492
    nsecs: 875545381
  frame_id: "ti_mmwave"
point_id: 6
x: 0.697265625
y: -0.3828125
z: 0.193359375
range: 0.871539413929
velocity: 0.0
doppler_bin: 8
bearing: -28.7676506042
intensity: 29.0633506775
---
header: 
  seq: 264728
  stamp: 
    secs: 1668121492
    nsecs: 875560174
  frame_id: "ti_mmwave"
point_id: 7
x: 0.900390625
y: -0.0
z: -0.021484375
range: 0.958693385124
velocity: 0.0
doppler_bin: 8
bearing: -0.0
intensity: 25.3529415131
---
header: 
  seq: 264729
  stamp: 
    secs: 1668121492
    nsecs: 875573201
  frame_id: "ti_mmwave"
point_id: 8
x: 0.939453125
y: -0.0
z: -0.05859375
range: 1.00227034092
velocity: 0.0
doppler_bin: 8
bearing: -0.0
intensity: 27.6937732697
---
header: 
  seq: 264730
  stamp: 
    secs: 1668121492
    nsecs: 875586166
  frame_id: "ti_mmwave"
point_id: 9
x: 0.9765625
y: -0.0
z: -0.091796875
range: 1.04584729671
velocity: 0.0
doppler_bin: 8
bearing: -0.0
intensity: 26.1172332764
---
header: 
  seq: 264731
  stamp: 
    secs: 1668121492
    nsecs: 875599601
  frame_id: "ti_mmwave"
point_id: 10
x: 7.91015625
y: 0.248046875
z: -0.59375
range: 8.45393276215
velocity: 0.0
doppler_bin: 8
bearing: 1.79609405994
intensity: 23.1597042084
---
header: 
  seq: 264732
  stamp: 
    secs: 1668121492
    nsecs: 875622771
  frame_id: "ti_mmwave"
point_id: 11
x: 7.947265625
y: -0.0
z: -0.67578125
range: 8.49750900269
velocity: 0.0
doppler_bin: 8
bearing: -0.0
intensity: 28.4880466461
---
header: 
  seq: 264733
  stamp: 
    secs: 1668121492
    nsecs: 875632924
  frame_id: "ti_mmwave"
point_id: 12
x: 7.9921875
y: -0.0
z: -0.646484375
range: 8.5410861969
velocity: 0.0
doppler_bin: 8
bearing: -0.0
intensity: 29.9913063049
---
header: 
  seq: 264734
  stamp: 
    secs: 1668121492
    nsecs: 875648580
  frame_id: "ti_mmwave"
point_id: 13
x: 8.048828125
y: -0.0
z: -0.40234375
range: 8.58466339111
velocity: 0.0
doppler_bin: 8
bearing: -0.0
intensity: 28.7852172852
---
header: 
  seq: 264735
  stamp: 
    secs: 1668121492
    nsecs: 875681006
  frame_id: "ti_mmwave"
point_id: 14
x: 8.099609375
y: -0.0
z: -0.07421875
range: 8.62824058533
velocity: 0.0
doppler_bin: 8
bearing: -0.0
intensity: 26.180480957
---
header: 
  seq: 264736
  stamp: 
    secs: 1668121492
    nsecs: 875692638
  frame_id: "ti_mmwave"
point_id: 15
x: 8.130859375
y: -0.25390625
z: -0.302734375
range: 8.67181682587
velocity: 0.0
doppler_bin: 8
bearing: -1.78862166405
intensity: 23.6735591888
---
header: 
  seq: 264737
  stamp: 
    secs: 1668121492
    nsecs: 875703001
  frame_id: "ti_mmwave"
point_id: 16
x: 0.041015625
y: -0.001953125
z: 0.0
range: 0.0435769706964
velocity: 0.0
doppler_bin: 8
bearing: -2.7263109684
intensity: 27.8175544739
---
header: 
  seq: 264738
  stamp: 
    secs: 1668121492
    nsecs: 875713710
  frame_id: "ti_mmwave"
point_id: 17
x: 0.08203125
y: -0.0078125
z: 0.00390625
range: 0.0871539413929
velocity: 0.0
doppler_bin: 8
bearing: -5.44033241272
intensity: 29.5375976562
---
header: 
  seq: 264739
  stamp: 
    secs: 1668121492
    nsecs: 905348007
  frame_id: "ti_mmwave"
point_id: 1
x: 0.01953125
y: 0.080078125
z: -0.0078125
range: 0.0871539413929
velocity: 0.0
doppler_bin: 8
bearing: 76.2930374146
intensity: 31.3987903595
---
header: 
  seq: 264740
  stamp: 
    secs: 1668121492
    nsecs: 905407726
  frame_id: "ti_mmwave"
point_id: 2
x: 0.029296875
y: 0.119140625
z: -0.0078125
range: 0.130730912089
velocity: 0.0
doppler_bin: 8
bearing: 76.1849746704
intensity: 30.0689373016
---
header: 
  seq: 264741
  stamp: 
    secs: 1668121492
    nsecs: 905426536
  frame_id: "ti_mmwave"
point_id: 4
x: 0.5859375
y: -0.34765625
z: 0.13671875
range: 0.740808486938
velocity: 0.0
doppler_bin: 8
bearing: -30.6820678711
intensity: 29.3348731995
---
header: 
  seq: 264742
  stamp: 
    secs: 1668121492
    nsecs: 905439219
  frame_id: "ti_mmwave"
point_id: 5
x: 0.619140625
y: -0.3671875
z: 0.15234375
range: 0.784385442734
velocity: 0.0
doppler_bin: 8
bearing: -30.6704826355
intensity: 33.159702301
---
header: 
  seq: 264743
  stamp: 
    secs: 1668121492
    nsecs: 905463632
  frame_id: "ti_mmwave"
point_id: 6
x: 0.666015625
y: -0.365234375
z: 0.16796875
range: 0.827962458134
velocity: 0.0
doppler_bin: 8
bearing: -28.7397975922
intensity: 33.0813751221
---
header: 
  seq: 264744
  stamp: 
    secs: 1668121492
    nsecs: 905480458
  frame_id: "ti_mmwave"
point_id: 7
x: 0.6953125
y: -0.3828125
z: 0.1953125
range: 0.871539413929
velocity: 0.0
doppler_bin: 8
bearing: -28.8355007172
intensity: 28.8986167908
---
header: 
  seq: 264745
  stamp: 
    secs: 1668121492
    nsecs: 905514189
  frame_id: "ti_mmwave"
point_id: 8
x: 0.939453125
y: -0.0
z: -0.046875
range: 1.00227034092
velocity: 0.0
doppler_bin: 8
bearing: -0.0
intensity: 27.466342926
---
header: 
  seq: 264746
  stamp: 
    secs: 1668121492
    nsecs: 905541744
  frame_id: "ti_mmwave"
point_id: 9
x: 0.98046875
y: -0.0
z: -0.052734375
range: 1.04584729671
velocity: 0.0
doppler_bin: 8
bearing: -0.0
intensity: 25.6110134125
---
header: 
  seq: 264747
  stamp: 
    secs: 1668121492
    nsecs: 905552528
  frame_id: "ti_mmwave"
point_id: 10
x: 7.91015625
y: 0.248046875
z: -0.595703125
range: 8.45393276215
velocity: 0.0
doppler_bin: 8
bearing: 1.79609405994
intensity: 23.0963020325
---
header: 
  seq: 264748
  stamp: 
    secs: 1668121492
    nsecs: 905567282
  frame_id: "ti_mmwave"
point_id: 11
x: 7.947265625
y: -0.0
z: -0.697265625
range: 8.49750900269
velocity: 0.0
doppler_bin: 8
bearing: -0.0
intensity: 28.4135951996
---
header: 
  seq: 264749
  stamp: 
    secs: 1668121492
    nsecs: 905621229
  frame_id: "ti_mmwave"
point_id: 12
x: 7.990234375
y: -0.0
z: -0.65625
range: 8.5410861969
velocity: 0.0
doppler_bin: 8
bearing: -0.0
intensity: 29.9343624115
---
header: 
  seq: 264750
  stamp: 
    secs: 1668121492
    nsecs: 905633380
  frame_id: "ti_mmwave"
point_id: 13
x: 8.048828125
y: -0.0
z: -0.39453125
range: 8.58466339111
velocity: 0.0
doppler_bin: 8
bearing: -0.0
intensity: 28.7390155792
---
header: 
  seq: 264751
  stamp: 
    secs: 1668121492
    nsecs: 905644585
  frame_id: "ti_mmwave"
point_id: 14
x: 8.099609375
y: -0.0
z: -0.01953125
range: 8.62824058533
velocity: 0.0
doppler_bin: 8
bearing: -0.0
intensity: 26.1489715576
---
header: 
  seq: 264752
  stamp: 
    secs: 1668121492
    nsecs: 905655235
  frame_id: "ti_mmwave"
point_id: 15
x: 0.041015625
y: -0.001953125
z: 0.0
range: 0.0435769706964
velocity: 0.0
doppler_bin: 8
bearing: -2.7263109684
intensity: 27.8175544739
---
header: 
  seq: 264753
  stamp: 
    secs: 1668121492
    nsecs: 905666184
  frame_id: "ti_mmwave"
point_id: 16
x: 0.08203125
y: -0.0078125
z: 0.00390625
range: 0.0871539413929
velocity: 0.0
doppler_bin: 8
bearing: -5.44033241272
intensity: 29.5375976562
---
header: 
  seq: 264754
  stamp: 
    secs: 1668121492
    nsecs: 905678243
  frame_id: "ti_mmwave"
point_id: 18
x: 0.041015625
y: 0.158203125
z: -0.00390625
range: 0.174307882786
velocity: 0.0
doppler_bin: 8
bearing: 75.4655456543
intensity: 26.211763382
---
header: 
  seq: 264755
  stamp: 
    secs: 1668121492
    nsecs: 950411058
  frame_id: "ti_mmwave"
point_id: 1
x: 0.01953125
y: 0.080078125
z: -0.0078125
range: 0.0871539413929
velocity: 0.0
doppler_bin: 8
bearing: 76.2930374146
intensity: 31.3987903595
---
header: 
  seq: 264756
  stamp: 
    secs: 1668121492
    nsecs: 950472004
  frame_id: "ti_mmwave"
point_id: 2
x: 0.029296875
y: 0.119140625
z: -0.0078125
range: 0.130730912089
velocity: 0.0
doppler_bin: 8
bearing: 76.1849746704
intensity: 30.0689373016
---
header: 
  seq: 264757
  stamp: 
    secs: 1668121492
    nsecs: 950495130
  frame_id: "ti_mmwave"
point_id: 4
x: 0.599609375
y: -0.326171875
z: 0.130859375
range: 0.740808486938
velocity: 0.0
doppler_bin: 8
bearing: -28.5450382233
intensity: 29.1592712402
---
header: 
  seq: 264758
  stamp: 
    secs: 1668121492
    nsecs: 950537272
  frame_id: "ti_mmwave"
point_id: 5
x: 0.619140625
y: -0.3671875
z: 0.150390625
range: 0.784385442734
velocity: 0.0
doppler_bin: 8
bearing: -30.6704826355
intensity: 33.0792388916
---
header: 
  seq: 264759
  stamp: 
    secs: 1668121492
    nsecs: 950550140
  frame_id: "ti_mmwave"
point_id: 6
x: 0.666015625
y: -0.365234375
z: 0.169921875
range: 0.827962458134
velocity: 0.0
doppler_bin: 8
bearing: -28.7397975922
intensity: 33.003780365
---
header: 
  seq: 264760
  stamp: 
    secs: 1668121492
    nsecs: 950561751
  frame_id: "ti_mmwave"
point_id: 7
x: 0.693359375
y: -0.3828125
z: 0.201171875
range: 0.871539413929
velocity: 0.0
doppler_bin: 8
bearing: -28.9036464691
intensity: 28.8817958832
---
header: 
  seq: 264761
  stamp: 
    secs: 1668121492
    nsecs: 950571848
  frame_id: "ti_mmwave"
point_id: 8
x: 0.939453125
y: -0.0
z: -0.060546875
range: 1.00227034092
velocity: 0.0
doppler_bin: 8
bearing: -0.0
intensity: 27.5434837341
---
header: 
  seq: 264762
  stamp: 
    secs: 1668121492
    nsecs: 950581119
  frame_id: "ti_mmwave"
point_id: 9
x: 0.978515625
y: -0.0
z: -0.076171875
range: 1.04584729671
velocity: 0.0
doppler_bin: 8
bearing: -0.0
intensity: 26.3042793274
---
header: 
  seq: 264763
  stamp: 
    secs: 1668121492
    nsecs: 950590707
  frame_id: "ti_mmwave"
point_id: 10
x: 7.91015625
y: 0.248046875
z: -0.583984375
range: 8.45393276215
velocity: 0.0
doppler_bin: 8
bearing: 1.79609405994
intensity: 23.0102996826
---
header: 
  seq: 264764
  stamp: 
    secs: 1668121492
    nsecs: 950597863
  frame_id: "ti_mmwave"
point_id: 11
x: 7.9453125
y: -0.0
z: -0.701171875
range: 8.49750900269
velocity: 0.0
doppler_bin: 8
bearing: -0.0
intensity: 28.3442077637
---
header: 
  seq: 264765
  stamp: 
    secs: 1668121492
    nsecs: 950700526
  frame_id: "ti_mmwave"
point_id: 12
x: 7.990234375
y: -0.0
z: -0.6640625
range: 8.5410861969
velocity: 0.0
doppler_bin: 8
bearing: -0.0
intensity: 29.863237381
---
header: 
  seq: 264766
  stamp: 
    secs: 1668121492
    nsecs: 950716996
  frame_id: "ti_mmwave"
point_id: 13
x: 8.05078125
y: -0.0
z: -0.373046875
range: 8.58466339111
velocity: 0.0
doppler_bin: 8
bearing: -0.0
intensity: 28.6628742218
---
header: 
  seq: 264767
  stamp: 
    secs: 1668121492
    nsecs: 950727485
  frame_id: "ti_mmwave"
point_id: 14
x: 8.09765625
y: -0.0
z: 0.1796875
range: 8.62824058533
velocity: 0.0
doppler_bin: 8
bearing: -0.0
intensity: 26.1489715576
---
header: 
  seq: 264768
  stamp: 
    secs: 1668121492
    nsecs: 950737190
  frame_id: "ti_mmwave"
point_id: 15
x: 0.041015625
y: -0.001953125
z: 0.0
range: 0.0435769706964
velocity: 0.0
doppler_bin: 8
bearing: -2.7263109684
intensity: 27.8103694916
---
header: 
  seq: 264769
  stamp: 
    secs: 1668121492
    nsecs: 950746314
  frame_id: "ti_mmwave"
point_id: 16
x: 0.08203125
y: -0.0078125
z: 0.00390625
range: 0.0871539413929
velocity: 0.0
doppler_bin: 8
bearing: -5.44033241272
intensity: 29.5375976562
---
header: 
  seq: 264770
  stamp: 
    secs: 1668121492
    nsecs: 950756096
  frame_id: "ti_mmwave"
point_id: 18
x: 0.041015625
y: 0.158203125
z: -0.00390625
range: 0.174307882786
velocity: 0.0
doppler_bin: 8
bearing: 75.4655456543
intensity: 26.211763382
---
header: 
  seq: 264771
  stamp: 
    secs: 1668121492
    nsecs: 980670300
  frame_id: "ti_mmwave"
point_id: 1
x: 0.01953125
y: 0.080078125
z: -0.0078125
range: 0.0871539413929
velocity: 0.0
doppler_bin: 8
bearing: 76.2930374146
intensity: 31.4019374847
---
header: 
  seq: 264772
  stamp: 
    secs: 1668121492
    nsecs: 980719675
  frame_id: "ti_mmwave"
point_id: 2
x: 0.029296875
y: 0.119140625
z: -0.0078125
range: 0.130730912089
velocity: 0.0
doppler_bin: 8
bearing: 76.1849746704
intensity: 30.0689373016
---
header: 
  seq: 264773
  stamp: 
    secs: 1668121492
    nsecs: 980737248
  frame_id: "ti_mmwave"
point_id: 4
x: 0.587890625
y: -0.34765625
z: 0.12890625
range: 0.740808486938
velocity: 0.0
doppler_bin: 8
bearing: -30.5984611511
intensity: 29.339931488
---
header: 
  seq: 264774
  stamp: 
    secs: 1668121492
    nsecs: 980801025
  frame_id: "ti_mmwave"
point_id: 5
x: 0.6328125
y: -0.345703125
z: 0.154296875
range: 0.784385442734
velocity: 0.0
doppler_bin: 8
bearing: -28.6476173401
intensity: 33.138671875
---
header: 
  seq: 264775
  stamp: 
    secs: 1668121492
    nsecs: 980826282
  frame_id: "ti_mmwave"
point_id: 6
x: 0.666015625
y: -0.365234375
z: 0.169921875
range: 0.827962458134
velocity: 0.0
doppler_bin: 8
bearing: -28.7397975922
intensity: 33.0102996826
---
header: 
  seq: 264776
  stamp: 
    secs: 1668121492
    nsecs: 980834549
  frame_id: "ti_mmwave"
point_id: 7
x: 0.6953125
y: -0.3828125
z: 0.1953125
range: 0.871539413929
velocity: 0.0
doppler_bin: 8
bearing: -28.8355007172
intensity: 28.8138465881
---
header: 
  seq: 264777
  stamp: 
    secs: 1668121492
    nsecs: 980843003
  frame_id: "ti_mmwave"
point_id: 8
x: 0.939453125
y: -0.029296875
z: -0.05859375
range: 1.00227034092
velocity: 0.0
doppler_bin: 8
bearing: -1.7861918211
intensity: 27.6863803864
---
header: 
  seq: 264778
  stamp: 
    secs: 1668121492
    nsecs: 980850564
  frame_id: "ti_mmwave"
point_id: 9
x: 0.978515625
y: -0.0
z: -0.087890625
range: 1.04584729671
velocity: 0.0
doppler_bin: 8
bearing: -0.0
intensity: 26.981004715
---
header: 
  seq: 264779
  stamp: 
    secs: 1668121492
    nsecs: 980859287
  frame_id: "ti_mmwave"
point_id: 10
x: 7.904296875
y: 0.248046875
z: -0.6640625
range: 8.45393276215
velocity: 0.0
doppler_bin: 8
bearing: 1.79742443562
intensity: 22.9666519165
---
header: 
  seq: 264780
  stamp: 
    secs: 1668121492
    nsecs: 980865632
  frame_id: "ti_mmwave"
point_id: 11
x: 7.9453125
y: -0.0
z: -0.70703125
range: 8.49750900269
velocity: 0.0
doppler_bin: 8
bearing: -0.0
intensity: 28.325088501
---
header: 
  seq: 264781
  stamp: 
    secs: 1668121492
    nsecs: 980877588
  frame_id: "ti_mmwave"
point_id: 12
x: 7.990234375
y: -0.0
z: -0.658203125
range: 8.5410861969
velocity: 0.0
doppler_bin: 8
bearing: -0.0
intensity: 29.8317508698
---
header: 
  seq: 264782
  stamp: 
    secs: 1668121492
    nsecs: 980908188
  frame_id: "ti_mmwave"
point_id: 13
x: 8.05078125
y: -0.0
z: -0.34765625
range: 8.58466339111
velocity: 0.0
doppler_bin: 8
bearing: -0.0
intensity: 28.6391735077
---
header: 
  seq: 264783
  stamp: 
    secs: 1668121492
    nsecs: 980916762
  frame_id: "ti_mmwave"
point_id: 14
x: 8.09375
y: -0.0
z: 0.28515625
range: 8.62824058533
velocity: 0.0
doppler_bin: 8
bearing: -0.0
intensity: 26.2428207397
---
header: 
  seq: 264784
  stamp: 
    secs: 1668121492
    nsecs: 980924984
  frame_id: "ti_mmwave"
point_id: 15
x: 8.05859375
y: -0.25390625
z: 1.115234375
range: 8.67181682587
velocity: 0.0
doppler_bin: 8
bearing: -1.80465054512
intensity: 23.8021125793
---
header: 
  seq: 264785
  stamp: 
    secs: 1668121492
    nsecs: 980933190
  frame_id: "ti_mmwave"
point_id: 16
x: 0.041015625
y: -0.001953125
z: 0.0
range: 0.0435769706964
velocity: 0.0
doppler_bin: 8
bearing: -2.7263109684
intensity: 27.8031730652
---
header: 
  seq: 264786
  stamp: 
    secs: 1668121492
    nsecs: 980940749
  frame_id: "ti_mmwave"
point_id: 17
x: 0.08203125
y: -0.0078125
z: 0.00390625
range: 0.0871539413929
velocity: 0.0
doppler_bin: 8
bearing: -5.44033241272
intensity: 29.5327625275
---
header: 
  seq: 264787
  stamp: 
    secs: 1668121492
    nsecs: 980953377
  frame_id: "ti_mmwave"
point_id: 19
x: 0.041015625
y: 0.158203125
z: -0.00390625
range: 0.174307882786
velocity: 0.0
doppler_bin: 8
bearing: 75.4655456543
intensity: 26.211763382
---
header: 
  seq: 264788
  stamp: 
    secs: 1668121493
    nsecs:  10187642
  frame_id: "ti_mmwave"
point_id: 1
x: 0.01953125
y: 0.080078125
z: -0.0078125
range: 0.0871539413929
velocity: 0.0
doppler_bin: 8
bearing: 76.2930374146
intensity: 31.3987903595
---
header: 
  seq: 264789
  stamp: 
    secs: 1668121493
    nsecs:  10250636
  frame_id: "ti_mmwave"
point_id: 2
x: 0.029296875
y: 0.119140625
z: -0.0078125
range: 0.130730912089
velocity: 0.0
doppler_bin: 8
bearing: 76.1849746704
intensity: 30.064661026
---
header: 
  seq: 264790
  stamp: 
    secs: 1668121493
    nsecs:  10295387
  frame_id: "ti_mmwave"
point_id: 4
x: 0.59765625
y: -0.326171875
z: 0.140625
range: 0.740808486938
velocity: 0.0
doppler_bin: 8
bearing: -28.6235752106
intensity: 29.2168655396
---
header: 
  seq: 264791
  stamp: 
    secs: 1668121493
    nsecs:  10313082
  frame_id: "ti_mmwave"
point_id: 5
x: 0.630859375
y: -0.345703125
z: 0.154296875
range: 0.784385442734
velocity: 0.0
doppler_bin: 8
bearing: -28.7221946716
intensity: 33.0189781189
---
header: 
  seq: 264792
  stamp: 
    secs: 1668121493
    nsecs:  10325833
  frame_id: "ti_mmwave"
point_id: 6
x: 0.666015625
y: -0.365234375
z: 0.166015625
range: 0.827962458134
velocity: 0.0
doppler_bin: 8
bearing: -28.7397975922
intensity: 32.9136886597
---
header: 
  seq: 264793
  stamp: 
    secs: 1668121493
    nsecs:  10337553
  frame_id: "ti_mmwave"
point_id: 7
x: 0.697265625
y: -0.3828125
z: 0.1875
range: 0.871539413929
velocity: 0.0
doppler_bin: 8
bearing: -28.7676506042
intensity: 28.70403862
---
header: 
  seq: 264794
  stamp: 
    secs: 1668121493
    nsecs:  10350526
  frame_id: "ti_mmwave"
point_id: 8
x: 0.939453125
y: -0.029296875
z: -0.05859375
range: 1.00227034092
velocity: 0.0
doppler_bin: 8
bearing: -1.7861918211
intensity: 27.6042251587
---
header: 
  seq: 264795
  stamp: 
    secs: 1668121493
    nsecs:  10362584
  frame_id: "ti_mmwave"
point_id: 9
x: 0.9765625
y: -0.03125
z: -0.091796875
range: 1.04584729671
velocity: 0.0
doppler_bin: 8
bearing: -1.83283960819
intensity: 26.637008667
---
header: 
  seq: 264796
  stamp: 
    secs: 1668121493
    nsecs:  10373792
  frame_id: "ti_mmwave"
point_id: 10
x: 7.908203125
y: 0.248046875
z: -0.611328125
range: 8.45393276215
velocity: 0.0
doppler_bin: 8
bearing: 1.79653739929
intensity: 23.0535144806
---
header: 
  seq: 264797
  stamp: 
    secs: 1668121493
    nsecs:  10384741
  frame_id: "ti_mmwave"
point_id: 11
x: 7.9453125
y: -0.0
z: -0.7109375
range: 8.49750900269
velocity: 0.0
doppler_bin: 8
bearing: -0.0
intensity: 28.3758850098
---
header: 
  seq: 264798
  stamp: 
    secs: 1668121493
    nsecs:  10396702
  frame_id: "ti_mmwave"
point_id: 12
x: 7.990234375
y: -0.0
z: -0.671875
range: 8.5410861969
velocity: 0.0
doppler_bin: 8
bearing: -0.0
intensity: 29.8317508698
---
header: 
  seq: 264799
  stamp: 
    secs: 1668121493
    nsecs:  10407323
  frame_id: "ti_mmwave"
point_id: 13
x: 8.05078125
y: -0.0
z: -0.3671875
range: 8.58466339111
velocity: 0.0
doppler_bin: 8
bearing: -0.0
intensity: 28.6093654633
---
header: 
  seq: 264800
  stamp: 
    secs: 1668121493
    nsecs:  10419026
  frame_id: "ti_mmwave"
point_id: 14
x: 8.095703125
y: -0.0
z: 0.255859375
range: 8.62824058533
velocity: 0.0
doppler_bin: 8
bearing: -0.0
intensity: 26.2634029388
---
header: 
  seq: 264801
  stamp: 
    secs: 1668121493
    nsecs:  10430455
  frame_id: "ti_mmwave"
point_id: 15
x: 8.095703125
y: -0.25390625
z: 0.814453125
range: 8.67181682587
velocity: 0.0
doppler_bin: 8
bearing: -1.79638373852
intensity: 24.0654010773
---
header: 
  seq: 264802
  stamp: 
    secs: 1668121493
    nsecs:  10441342
  frame_id: "ti_mmwave"
point_id: 16
x: 0.041015625
y: -0.001953125
z: 0.0
range: 0.0435769706964
velocity: 0.0
doppler_bin: 8
bearing: -2.7263109684
intensity: 27.8175544739
---
header: 
  seq: 264803
  stamp: 
    secs: 1668121493
    nsecs:  10452586
  frame_id: "ti_mmwave"
point_id: 17
x: 0.08203125
y: -0.0078125
z: 0.00390625
range: 0.0871539413929
velocity: 0.0
doppler_bin: 8
bearing: -5.44033241272
intensity: 29.5375976562
---
header: 
  seq: 264804
  stamp: 
    secs: 1668121493
    nsecs:  10466160
  frame_id: "ti_mmwave"
point_id: 19
x: 0.041015625
y: 0.158203125
z: -0.00390625
range: 0.174307882786
velocity: 0.0
doppler_bin: 8
bearing: 75.4655456543
intensity: 26.2013607025
---
header: 
  seq: 264805
  stamp: 
    secs: 1668121493
    nsecs:  40145139
  frame_id: "ti_mmwave"
point_id: 1
x: 0.01953125
y: 0.080078125
z: -0.0078125
range: 0.0871539413929
velocity: 0.0
doppler_bin: 8
bearing: 76.2930374146
intensity: 31.4019374847
---
header: 
  seq: 264806
  stamp: 
    secs: 1668121493
    nsecs:  40191028
  frame_id: "ti_mmwave"
point_id: 2
x: 0.029296875
y: 0.119140625
z: -0.0078125
range: 0.130730912089
velocity: 0.0
doppler_bin: 8
bearing: 76.1849746704
intensity: 30.0689373016
---
header: 
  seq: 264807
  stamp: 
    secs: 1668121493
    nsecs:  40206601
  frame_id: "ti_mmwave"
point_id: 4
x: 0.58984375
y: -0.34765625
z: 0.125
range: 0.740808486938
velocity: 0.0
doppler_bin: 8
bearing: -30.5152664185
intensity: 29.2064495087
---
header: 
  seq: 264808
  stamp: 
    secs: 1668121493
    nsecs:  40244589
  frame_id: "ti_mmwave"
point_id: 5
x: 0.6328125
y: -0.345703125
z: 0.150390625
range: 0.784385442734
velocity: 0.0
doppler_bin: 8
bearing: -28.6476173401
intensity: 33.003780365
---
header: 
  seq: 264809
  stamp: 
    secs: 1668121493
    nsecs:  40251772
  frame_id: "ti_mmwave"
point_id: 6
x: 0.66796875
y: -0.365234375
z: 0.162109375
range: 0.827962458134
velocity: 0.0
doppler_bin: 8
bearing: -28.6691188812
intensity: 32.848815918
---
header: 
  seq: 264810
  stamp: 
    secs: 1668121493
    nsecs:  40258355
  frame_id: "ti_mmwave"
point_id: 7
x: 0.7109375
y: -0.357421875
z: 0.19140625
range: 0.871539413929
velocity: 0.0
doppler_bin: 8
bearing: -26.6908378601
intensity: 28.5853729248
---
header: 
  seq: 264811
  stamp: 
    secs: 1668121493
    nsecs:  40264733
  frame_id: "ti_mmwave"
point_id: 8
x: 0.939453125
y: -0.029296875
z: -0.04296875
range: 1.00227034092
velocity: 0.0
doppler_bin: 8
bearing: -1.7861918211
intensity: 27.3719272614
---
header: 
  seq: 264812
  stamp: 
    secs: 1668121493
    nsecs:  40270867
  frame_id: "ti_mmwave"
point_id: 9
x: 0.978515625
y: -0.03125
z: -0.083984375
range: 1.04584729671
velocity: 0.0
doppler_bin: 8
bearing: -1.82918357849
intensity: 25.9106464386
---
header: 
  seq: 264813
  stamp: 
    secs: 1668121493
    nsecs:  40277094
  frame_id: "ti_mmwave"
point_id: 10
x: 7.904296875
y: 0.248046875
z: -0.65234375
range: 8.45393276215
velocity: 0.0
doppler_bin: 8
bearing: 1.79742443562
intensity: 23.0535144806
---
header: 
  seq: 264814
  stamp: 
    secs: 1668121493
    nsecs:  40287162
  frame_id: "ti_mmwave"
point_id: 11
x: 7.9453125
y: -0.0
z: -0.708984375
range: 8.49750900269
velocity: 0.0
doppler_bin: 8
bearing: -0.0
intensity: 28.3947811127
---
header: 
  seq: 264815
  stamp: 
    secs: 1668121493
    nsecs:  40306562
  frame_id: "ti_mmwave"
point_id: 12
x: 7.990234375
y: -0.0
z: -0.669921875
range: 8.5410861969
velocity: 0.0
doppler_bin: 8
bearing: -0.0
intensity: 29.8407707214
---
header: 
  seq: 264816
  stamp: 
    secs: 1668121493
    nsecs:  40312850
  frame_id: "ti_mmwave"
point_id: 13
x: 8.05078125
y: -0.0
z: -0.37109375
range: 8.58466339111
velocity: 0.0
doppler_bin: 8
bearing: -0.0
intensity: 28.6033802032
---
header: 
  seq: 264817
  stamp: 
    secs: 1668121493
    nsecs:  40318802
  frame_id: "ti_mmwave"
point_id: 14
x: 8.095703125
y: -0.0
z: 0.259765625
range: 8.62824058533
velocity: 0.0
doppler_bin: 8
bearing: -0.0
intensity: 26.2736587524
---
header: 
  seq: 264818
  stamp: 
    secs: 1668121493
    nsecs:  40324793
  frame_id: "ti_mmwave"
point_id: 15
x: 8.103515625
y: -0.25390625
z: 0.724609375
range: 8.67181682587
velocity: 0.0
doppler_bin: 8
bearing: -1.79465293884
intensity: 24.2651119232
---
header: 
  seq: 264819
  stamp: 
    secs: 1668121493
    nsecs:  40334059
  frame_id: "ti_mmwave"
point_id: 16
x: 0.041015625
y: -0.001953125
z: 0.0
range: 0.0435769706964
velocity: 0.0
doppler_bin: 8
bearing: -2.7263109684
intensity: 27.8175544739
---
header: 
  seq: 264820
  stamp: 
    secs: 1668121493
    nsecs:  40340470
  frame_id: "ti_mmwave"
point_id: 17
x: 0.08203125
y: -0.0078125
z: 0.00390625
range: 0.0871539413929
velocity: 0.0
doppler_bin: 8
bearing: -5.44033241272
intensity: 29.5375976562
---
header: 
  seq: 264821
  stamp: 
    secs: 1668121493
    nsecs:  40347678
  frame_id: "ti_mmwave"
point_id: 19
x: 0.041015625
y: 0.158203125
z: -0.00390625
range: 0.174307882786
velocity: 0.0
doppler_bin: 8
bearing: 75.4655456543
intensity: 26.211763382
---
header: 
  seq: 264822
  stamp: 
    secs: 1668121493
    nsecs:  70153037
  frame_id: "ti_mmwave"
point_id: 1
x: 0.01953125
y: 0.080078125
z: -0.0078125
range: 0.0871539413929
velocity: 0.0
doppler_bin: 8
bearing: 76.2930374146
intensity: 31.4019374847
---
header: 
  seq: 264823
  stamp: 
    secs: 1668121493
    nsecs:  70195330
  frame_id: "ti_mmwave"
point_id: 2
x: 0.029296875
y: 0.119140625
z: -0.0078125
range: 0.130730912089
velocity: 0.0
doppler_bin: 8
bearing: 76.1849746704
intensity: 30.0689373016
---
header: 
  seq: 264824
  stamp: 
    secs: 1668121493
    nsecs:  70231623
  frame_id: "ti_mmwave"
point_id: 4
x: 0.6015625
y: -0.326171875
z: 0.125
range: 0.740808486938
velocity: 0.0
doppler_bin: 8
bearing: -28.4668922424
intensity: 29.4694328308
---
header: 
  seq: 264825
  stamp: 
    secs: 1668121493
    nsecs:  70257098
  frame_id: "ti_mmwave"
point_id: 5
x: 0.619140625
y: -0.3671875
z: 0.150390625
range: 0.784385442734
velocity: 0.0
doppler_bin: 8
bearing: -30.6704826355
intensity: 33.0728187561
---
header: 
  seq: 264826
  stamp: 
    secs: 1668121493
    nsecs:  70297180
  frame_id: "ti_mmwave"
point_id: 6
x: 0.66796875
y: -0.365234375
z: 0.162109375
range: 0.827962458134
velocity: 0.0
doppler_bin: 8
bearing: -28.6691188812
intensity: 32.817150116
---
header: 
  seq: 264827
  stamp: 
    secs: 1668121493
    nsecs:  70332383
  frame_id: "ti_mmwave"
point_id: 7
x: 0.69921875
y: -0.3828125
z: 0.18359375
range: 0.871539413929
velocity: 0.0
doppler_bin: 8
bearing: -28.7000904083
intensity: 28.4695529938
---
header: 
  seq: 264828
  stamp: 
    secs: 1668121493
    nsecs:  70340011
  frame_id: "ti_mmwave"
point_id: 8
x: 0.9375
y: -0.05859375
z: -0.0390625
range: 1.00227034092
velocity: 0.0
doppler_bin: 8
bearing: -3.57633447647
intensity: 26.7302093506
---
header: 
  seq: 264829
  stamp: 
    secs: 1668121493
    nsecs:  70346690
  frame_id: "ti_mmwave"
point_id: 9
x: 0.9765625
y: -0.060546875
z: -0.08984375
range: 1.04584729671
velocity: 0.0
doppler_bin: 8
bearing: -3.54779696465
intensity: 25.5870857239
---
header: 
  seq: 264830
  stamp: 
    secs: 1668121493
    nsecs:  70352655
  frame_id: "ti_mmwave"
point_id: 10
x: 1.0390625
y: -0.0
z: -0.2265625
range: 1.13300120831
velocity: 0.0
doppler_bin: 8
bearing: -0.0
intensity: 24.2813472748
---
header: 
  seq: 264831
  stamp: 
    secs: 1668121493
    nsecs:  70358012
  frame_id: "ti_mmwave"
point_id: 11
x: 7.908203125
y: 0.248046875
z: -0.62109375
range: 8.45393276215
velocity: 0.0
doppler_bin: 8
bearing: 1.79653739929
intensity: 23.0749607086
---
header: 
  seq: 264832
  stamp: 
    secs: 1668121493
    nsecs:  70364248
  frame_id: "ti_mmwave"
point_id: 12
x: 7.9453125
y: -0.0
z: -0.701171875
range: 8.49750900269
velocity: 0.0
doppler_bin: 8
bearing: -0.0
intensity: 28.4073314667
---
header: 
  seq: 264833
  stamp: 
    secs: 1668121493
    nsecs:  70370054
  frame_id: "ti_mmwave"
point_id: 13
x: 7.990234375
y: -0.0
z: -0.673828125
range: 8.5410861969
velocity: 0.0
doppler_bin: 8
bearing: -0.0
intensity: 29.863237381
---
header: 
  seq: 264834
  stamp: 
    secs: 1668121493
    nsecs:  70375592
  frame_id: "ti_mmwave"
point_id: 14
x: 8.046875
y: -0.251953125
z: -0.37109375
range: 8.58466339111
velocity: 0.0
doppler_bin: 8
bearing: -1.79338395596
intensity: 28.5430603027
---
header: 
  seq: 264835
  stamp: 
    secs: 1668121493
    nsecs:  70381781
  frame_id: "ti_mmwave"
point_id: 15
x: 8.09765625
y: -0.0
z: 0.1953125
range: 8.62824058533
velocity: 0.0
doppler_bin: 8
bearing: -0.0
intensity: 26.2428207397
---
header: 
  seq: 264836
  stamp: 
    secs: 1668121493
    nsecs:  70387624
  frame_id: "ti_mmwave"
point_id: 16
x: 8.125
y: -0.25390625
z: 0.423828125
range: 8.67181682587
velocity: 0.0
doppler_bin: 8
bearing: -1.7899106741
intensity: 24.3296928406
---
header: 
  seq: 264837
  stamp: 
    secs: 1668121493
    nsecs:  70409683
  frame_id: "ti_mmwave"
point_id: 17
x: 0.041015625
y: -0.001953125
z: 0.0
range: 0.0435769706964
velocity: 0.0
doppler_bin: 8
bearing: -2.7263109684
intensity: 27.8175544739
---
header: 
  seq: 264838
  stamp: 
    secs: 1668121493
    nsecs:  70416599
  frame_id: "ti_mmwave"
point_id: 18
x: 0.08203125
y: -0.0078125
z: 0.00390625
range: 0.0871539413929
velocity: 0.0
doppler_bin: 8
bearing: -5.44033241272
intensity: 29.5375976562
---
header: 
  seq: 264839
  stamp: 
    secs: 1668121493
    nsecs:  70423442
  frame_id: "ti_mmwave"
point_id: 20
x: 0.041015625
y: 0.158203125
z: -0.00390625
range: 0.174307882786
velocity: 0.0
doppler_bin: 8
bearing: 75.4655456543
intensity: 26.211763382
---
header: 
  seq: 264840
  stamp: 
    secs: 1668121493
    nsecs: 115162373
  frame_id: "ti_mmwave"
point_id: 1
x: 0.017578125
y: 0.080078125
z: -0.0078125
range: 0.0871539413929
velocity: 0.0
doppler_bin: 8
bearing: 77.6192398071
intensity: 31.3987903595
---
header: 
  seq: 264841
  stamp: 
    secs: 1668121493
    nsecs: 115205749
  frame_id: "ti_mmwave"
point_id: 2
x: 0.029296875
y: 0.119140625
z: -0.0078125
range: 0.130730912089
velocity: 0.0
doppler_bin: 8
bearing: 76.1849746704
intensity: 30.064661026
---
header: 
  seq: 264842
  stamp: 
    secs: 1668121493
    nsecs: 115218026
  frame_id: "ti_mmwave"
point_id: 4
x: 0.595703125
y: -0.326171875
z: 0.1484375
range: 0.740808486938
velocity: 0.0
doppler_bin: 8
bearing: -28.7025108337
intensity: 29.1960105896
---
header: 
  seq: 264843
  stamp: 
    secs: 1668121493
    nsecs: 115245204
  frame_id: "ti_mmwave"
point_id: 5
x: 0.630859375
y: -0.345703125
z: 0.154296875
range: 0.784385442734
velocity: 0.0
doppler_bin: 8
bearing: -28.7221946716
intensity: 32.997253418
---
header: 
  seq: 264844
  stamp: 
    secs: 1668121493
    nsecs: 115252867
  frame_id: "ti_mmwave"
point_id: 6
x: 0.66796875
y: -0.365234375
z: 0.16015625
range: 0.827962458134
velocity: 0.0
doppler_bin: 8
bearing: -28.6691188812
intensity: 32.716091156
---
header: 
  seq: 264845
  stamp: 
    secs: 1668121493
    nsecs: 115259549
  frame_id: "ti_mmwave"
point_id: 7
x: 0.703125
y: -0.3828125
z: 0.1640625
range: 0.871539413929
velocity: 0.0
doppler_bin: 8
bearing: -28.5658378601
intensity: 28.2736930847
---
header: 
  seq: 264846
  stamp: 
    secs: 1668121493
    nsecs: 115265879
  frame_id: "ti_mmwave"
point_id: 8
x: 0.939453125
y: -0.029296875
z: -0.046875
range: 1.00227034092
velocity: 0.0
doppler_bin: 8
bearing: -1.7861918211
intensity: 27.2997436523
---
header: 
  seq: 264847
  stamp: 
    secs: 1668121493
    nsecs: 115272453
  frame_id: "ti_mmwave"
point_id: 9
x: 0.978515625
y: -0.03125
z: -0.07421875
range: 1.04584729671
velocity: 0.0
doppler_bin: 8
bearing: -1.82918357849
intensity: 26.541765213
---
header: 
  seq: 264848
  stamp: 
    secs: 1668121493
    nsecs: 115278712
  frame_id: "ti_mmwave"
point_id: 10
x: 1.0390625
y: -0.0
z: -0.22265625
range: 1.13300120831
velocity: 0.0
doppler_bin: 8
bearing: -0.0
intensity: 24.031206131
---
header: 
  seq: 264849
  stamp: 
    secs: 1668121493
    nsecs: 115300062
  frame_id: "ti_mmwave"
point_id: 11
x: 7.908203125
y: 0.248046875
z: -0.623046875
range: 8.45393276215
velocity: 0.0
doppler_bin: 8
bearing: 1.79653739929
intensity: 23.0963020325
---
header: 
  seq: 264850
  stamp: 
    secs: 1668121493
    nsecs: 115306752
  frame_id: "ti_mmwave"
point_id: 12
x: 7.9453125
y: -0.0
z: -0.705078125
range: 8.49750900269
velocity: 0.0
doppler_bin: 8
bearing: -0.0
intensity: 28.4323272705
---
header: 
  seq: 264851
  stamp: 
    secs: 1668121493
    nsecs: 115313083
  frame_id: "ti_mmwave"
point_id: 13
x: 7.990234375
y: -0.0
z: -0.669921875
range: 8.5410861969
velocity: 0.0
doppler_bin: 8
bearing: -0.0
intensity: 29.8855895996
---
header: 
  seq: 264852
  stamp: 
    secs: 1668121493
    nsecs: 115317488
  frame_id: "ti_mmwave"
point_id: 14
x: 8.044921875
y: -0.251953125
z: -0.38671875
range: 8.58466339111
velocity: 0.0
doppler_bin: 8
bearing: -1.79381895065
intensity: 28.5672893524
---
header: 
  seq: 264853
  stamp: 
    secs: 1668121493
    nsecs: 115335915
  frame_id: "ti_mmwave"
point_id: 15
x: 8.099609375
y: -0.0
z: 0.044921875
range: 8.62824058533
velocity: 0.0
doppler_bin: 8
bearing: -0.0
intensity: 26.0959434509
---
header: 
  seq: 264854
  stamp: 
    secs: 1668121493
    nsecs: 115342254
  frame_id: "ti_mmwave"
point_id: 16
x: 8.134765625
y: -0.25390625
z: -0.158203125
range: 8.67181682587
velocity: 0.0
doppler_bin: 8
bearing: -1.78776311874
intensity: 23.8381538391
---
header: 
  seq: 264855
  stamp: 
    secs: 1668121493
    nsecs: 115348161
  frame_id: "ti_mmwave"
point_id: 17
x: 0.041015625
y: -0.001953125
z: 0.0
range: 0.0435769706964
velocity: 0.0
doppler_bin: 8
bearing: -2.7263109684
intensity: 27.8175544739
---
header: 
  seq: 264856
  stamp: 
    secs: 1668121493
    nsecs: 115363727
  frame_id: "ti_mmwave"
point_id: 18
x: 0.08203125
y: -0.0078125
z: 0.00390625
range: 0.0871539413929
velocity: 0.0
doppler_bin: 8
bearing: -5.44033241272
intensity: 29.5424251556
---
header: 
  seq: 264857
  stamp: 
    secs: 1668121493
    nsecs: 115383954
  frame_id: "ti_mmwave"
point_id: 20
x: 0.041015625
y: 0.158203125
z: -0.00390625
range: 0.174307882786
velocity: 0.0
doppler_bin: 8
bearing: 75.4655456543
intensity: 26.211763382
---
header: 
  seq: 264858
  stamp: 
    secs: 1668121493
    nsecs: 145170191
  frame_id: "ti_mmwave"
point_id: 1
x: 0.01953125
y: 0.080078125
z: -0.0078125
range: 0.0871539413929
velocity: 0.0
doppler_bin: 8
bearing: 76.2930374146
intensity: 31.4019374847
---
header: 
  seq: 264859
  stamp: 
    secs: 1668121493
    nsecs: 145214030
  frame_id: "ti_mmwave"
point_id: 2
x: 0.029296875
y: 0.119140625
z: -0.0078125
range: 0.130730912089
velocity: 0.0
doppler_bin: 8
bearing: 76.1849746704
intensity: 30.0689373016
---
header: 
  seq: 264860
  stamp: 
    secs: 1668121493
    nsecs: 145226055
  frame_id: "ti_mmwave"
point_id: 4
x: 0.587890625
y: -0.34765625
z: 0.126953125
range: 0.740808486938
velocity: 0.0
doppler_bin: 8
bearing: -30.5984611511
intensity: 29.127532959
---
header: 
  seq: 264861
  stamp: 
    secs: 1668121493
    nsecs: 145252885
  frame_id: "ti_mmwave"
point_id: 5
x: 0.62109375
y: -0.3671875
z: 0.146484375
range: 0.784385442734
velocity: 0.0
doppler_bin: 8
bearing: -30.5913658142
intensity: 32.9092445374
---
header: 
  seq: 264862
  stamp: 
    secs: 1668121493
    nsecs: 145261256
  frame_id: "ti_mmwave"
point_id: 6
x: 0.66796875
y: -0.365234375
z: 0.158203125
range: 0.827962458134
velocity: 0.0
doppler_bin: 8
bearing: -28.6691188812
intensity: 32.699798584
---
header: 
  seq: 264863
  stamp: 
    secs: 1668121493
    nsecs: 145267916
  frame_id: "ti_mmwave"
point_id: 7
x: 0.712890625
y: -0.357421875
z: 0.177734375
range: 0.871539413929
velocity: 0.0
doppler_bin: 8
bearing: -26.6278057098
intensity: 28.1424751282
---
header: 
  seq: 264864
  stamp: 
    secs: 1668121493
    nsecs: 145274149
  frame_id: "ti_mmwave"
point_id: 8
x: 0.939453125
y: -0.029296875
z: -0.052734375
range: 1.00227034092
velocity: 0.0
doppler_bin: 8
bearing: -1.7861918211
intensity: 27.2591171265
---
header: 
  seq: 264865
  stamp: 
    secs: 1668121493
    nsecs: 145281149
  frame_id: "ti_mmwave"
point_id: 9
x: 0.978515625
y: -0.03125
z: -0.07421875
range: 1.04584729671
velocity: 0.0
doppler_bin: 8
bearing: -1.82918357849
intensity: 26.503074646
---
header: 
  seq: 264866
  stamp: 
    secs: 1668121493
    nsecs: 145287593
  frame_id: "ti_mmwave"
point_id: 10
x: 1.044921875
y: -0.0
z: -0.203125
range: 1.13300120831
velocity: 0.0
doppler_bin: 8
bearing: -0.0
intensity: 24.0654010773
---
header: 
  seq: 264867
  stamp: 
    secs: 1668121493
    nsecs: 145312319
  frame_id: "ti_mmwave"
point_id: 11
x: 7.912109375
y: -0.0
z: -0.619140625
range: 8.45393276215
velocity: 0.0
doppler_bin: 8
bearing: -0.0
intensity: 23.0963020325
---
header: 
  seq: 264868
  stamp: 
    secs: 1668121493
    nsecs: 145319052
  frame_id: "ti_mmwave"
point_id: 12
x: 7.947265625
y: -0.0
z: -0.69140625
range: 8.49750900269
velocity: 0.0
doppler_bin: 8
bearing: -0.0
intensity: 28.4695529938
---
header: 
  seq: 264869
  stamp: 
    secs: 1668121493
    nsecs: 145325292
  frame_id: "ti_mmwave"
point_id: 13
x: 7.990234375
y: -0.0
z: -0.658203125
range: 8.5410861969
velocity: 0.0
doppler_bin: 8
bearing: -0.0
intensity: 29.9387683868
---
header: 
  seq: 264870
  stamp: 
    secs: 1668121493
    nsecs: 145331569
  frame_id: "ti_mmwave"
point_id: 14
x: 8.046875
y: -0.251953125
z: -0.337890625
range: 8.58466339111
velocity: 0.0
doppler_bin: 8
bearing: -1.79338395596
intensity: 28.6093654633
---
header: 
  seq: 264871
  stamp: 
    secs: 1668121493
    nsecs: 145349334
  frame_id: "ti_mmwave"
point_id: 15
x: 8.09375
y: -0.0
z: 0.32421875
range: 8.62824058533
velocity: 0.0
doppler_bin: 8
bearing: -0.0
intensity: 26.1909332275
---
header: 
  seq: 264872
  stamp: 
    secs: 1668121493
    nsecs: 145356001
  frame_id: "ti_mmwave"
point_id: 16
x: 0.041015625
y: -0.001953125
z: 0.0
range: 0.0435769706964
velocity: 0.0
doppler_bin: 8
bearing: -2.7263109684
intensity: 27.8103694916
---
header: 
  seq: 264873
  stamp: 
    secs: 1668121493
    nsecs: 145361331
  frame_id: "ti_mmwave"
point_id: 17
x: 0.08203125
y: -0.0078125
z: 0.00390625
range: 0.0871539413929
velocity: 0.0
doppler_bin: 8
bearing: -5.44033241272
intensity: 29.5375976562
---
header: 
  seq: 264874
  stamp: 
    secs: 1668121493
    nsecs: 145376946
  frame_id: "ti_mmwave"
point_id: 19
x: 0.041015625
y: 0.158203125
z: -0.00390625
range: 0.174307882786
velocity: 0.0
doppler_bin: 8
bearing: 75.4655456543
intensity: 26.2013607025
---
header: 
  seq: 264875
  stamp: 
    secs: 1668121493
