header: 
  seq: 282037
  stamp: 
    secs: 1668121530
    nsecs: 480538451
  frame_id: "ti_mmwave"
point_id: 1
x: 0.01953125
y: 0.080078125
z: -0.0078125
range: 0.0871539413929
velocity: 0.0
doppler_bin: 8
bearing: 76.2930374146
intensity: 31.3924922943
---
header: 
  seq: 282038
  stamp: 
    secs: 1668121530
    nsecs: 480580130
  frame_id: "ti_mmwave"
point_id: 2
x: 0.029296875
y: 0.119140625
z: -0.0078125
range: 0.130730912089
velocity: 0.0
doppler_bin: 8
bearing: 76.1849746704
intensity: 30.0560951233
---
header: 
  seq: 282039
  stamp: 
    secs: 1668121530
    nsecs: 480592566
  frame_id: "ti_mmwave"
point_id: 3
x: 0.60546875
y: -0.326171875
z: 0.103515625
range: 0.740808486938
velocity: 0.0
doppler_bin: 8
bearing: -28.3117771149
intensity: 27.8604125977
---
header: 
  seq: 282040
  stamp: 
    secs: 1668121530
    nsecs: 480626629
  frame_id: "ti_mmwave"
point_id: 4
x: 0.642578125
y: -0.345703125
z: 0.099609375
range: 0.784385442734
velocity: 0.0
doppler_bin: 8
bearing: -28.2799816132
intensity: 28.4880466461
---
header: 
  seq: 282041
  stamp: 
    secs: 1668121530
    nsecs: 480635249
  frame_id: "ti_mmwave"
point_id: 5
x: 0.681640625
y: -0.365234375
z: 0.07421875
range: 0.827962458134
velocity: 0.0
doppler_bin: 8
bearing: -28.1831455231
intensity: 26.1172332764
---
header: 
  seq: 282042
  stamp: 
    secs: 1668121530
    nsecs: 480642710
  frame_id: "ti_mmwave"
point_id: 6
x: 0.7265625
y: -0.306640625
z: 0.220703125
range: 0.871539413929
velocity: 0.0
doppler_bin: 8
bearing: -22.8818378448
intensity: 25.8883171082
---
header: 
  seq: 282043
  stamp: 
    secs: 1668121530
    nsecs: 480649753
  frame_id: "ti_mmwave"
point_id: 7
x: 0.935546875
y: -0.095703125
z: 0.40234375
range: 1.08942425251
velocity: 0.0
doppler_bin: 8
bearing: -5.84083747864
intensity: 24.1664047241
---
header: 
  seq: 282044
  stamp: 
    secs: 1668121530
    nsecs: 480656505
  frame_id: "ti_mmwave"
point_id: 8
x: 0.921875
y: -0.0
z: 0.529296875
range: 1.13300120831
velocity: 0.0
doppler_bin: 8
bearing: -0.0
intensity: 26.2736587524
---
header: 
  seq: 282045
  stamp: 
    secs: 1668121530
    nsecs: 480662827
  frame_id: "ti_mmwave"
point_id: 9
x: 1.0078125
y: -0.0
z: 0.44921875
range: 1.1765781641
velocity: 0.0
doppler_bin: 8
bearing: -0.0
intensity: 25.15873909
---
header: 
  seq: 282046
  stamp: 
    secs: 1668121530
    nsecs: 480669738
  frame_id: "ti_mmwave"
point_id: 10
x: 7.927734375
y: 0.248046875
z: -0.248046875
range: 8.45393276215
velocity: 0.0
doppler_bin: 8
bearing: 1.79211401939
intensity: 29.0525608063
---
header: 
  seq: 282047
  stamp: 
    secs: 1668121530
    nsecs: 480676742
  frame_id: "ti_mmwave"
point_id: 11
x: 7.9609375
y: 0.25
z: -0.42578125
range: 8.49750900269
velocity: 0.0
doppler_bin: 8
bearing: 1.79868757725
intensity: 33.8093452454
---
header: 
  seq: 282048
  stamp: 
    secs: 1668121530
    nsecs: 480683347
  frame_id: "ti_mmwave"
point_id: 12
x: 8.001953125
y: 0.25
z: -0.421875
range: 8.5410861969
velocity: 0.0
doppler_bin: 8
bearing: 1.78947401047
intensity: 34.5285949707
---
header: 
  seq: 282049
  stamp: 
    secs: 1668121530
    nsecs: 480689615
  frame_id: "ti_mmwave"
point_id: 13
x: 8.0546875
y: 0.251953125
z: 0.03125
range: 8.58466339111
velocity: 0.0
doppler_bin: 8
bearing: 1.79164552689
intensity: 31.3767051697
---
header: 
  seq: 282050
  stamp: 
    secs: 1668121530
    nsecs: 480694068
  frame_id: "ti_mmwave"
point_id: 14
x: 8.080078125
y: -0.505859375
z: 0.21875
range: 8.62824058533
velocity: 0.0
doppler_bin: 8
bearing: -3.58237028122
intensity: 24.9692974091
---
header: 
  seq: 282051
  stamp: 
    secs: 1668121530
    nsecs: 480704554
  frame_id: "ti_mmwave"
point_id: 15
x: 8.0625
y: -1.017578125
z: -0.46484375
range: 8.67181682587
velocity: 0.0
doppler_bin: 8
bearing: -7.19333744049
intensity: 23.4830493927
---
header: 
  seq: 282052
  stamp: 
    secs: 1668121530
    nsecs: 480735344
  frame_id: "ti_mmwave"
point_id: 16
x: 0.041015625
y: -0.001953125
z: 0.0
range: 0.0435769706964
velocity: 0.0
doppler_bin: 8
bearing: -2.7263109684
intensity: 27.7815132141
---
header: 
  seq: 282053
  stamp: 
    secs: 1668121530
    nsecs: 480743444
  frame_id: "ti_mmwave"
point_id: 17
x: 0.08203125
y: -0.0078125
z: 0.00390625
range: 0.0871539413929
velocity: 0.0
doppler_bin: 8
bearing: -5.44033241272
intensity: 29.5182304382
---
header: 
  seq: 282054
  stamp: 
    secs: 1668121530
    nsecs: 480751055
  frame_id: "ti_mmwave"
point_id: 19
x: 0.62109375
y: 0.255859375
z: -0.771484375
range: 1.08942425251
velocity: 0.0
doppler_bin: 8
bearing: 22.3891963959
intensity: 22.1218757629
---
header: 
  seq: 282055
  stamp: 
    secs: 1668121530
    nsecs: 510558220
  frame_id: "ti_mmwave"
point_id: 1
x: 0.01953125
y: 0.080078125
z: -0.0078125
range: 0.0871539413929
velocity: 0.0
doppler_bin: 8
bearing: 76.2930374146
intensity: 31.389339447
---
header: 
  seq: 282056
  stamp: 
    secs: 1668121530
    nsecs: 510605332
  frame_id: "ti_mmwave"
point_id: 2
x: 0.029296875
y: 0.119140625
z: -0.0078125
range: 0.130730912089
velocity: 0.0
doppler_bin: 8
bearing: 76.1849746704
intensity: 30.0518054962
---
header: 
  seq: 282057
  stamp: 
    secs: 1668121530
    nsecs: 510617744
  frame_id: "ti_mmwave"
point_id: 3
x: 0.60546875
y: -0.326171875
z: 0.107421875
range: 0.740808486938
velocity: 0.0
doppler_bin: 8
bearing: -28.3117771149
intensity: 27.7451705933
---
header: 
  seq: 282058
  stamp: 
    secs: 1668121530
    nsecs: 510690311
  frame_id: "ti_mmwave"
point_id: 4
x: 0.642578125
y: -0.345703125
z: 0.103515625
range: 0.784385442734
velocity: 0.0
doppler_bin: 8
bearing: -28.2799816132
intensity: 28.4323272705
---
header: 
  seq: 282059
  stamp: 
    secs: 1668121530
    nsecs: 510703681
  frame_id: "ti_mmwave"
point_id: 5
x: 0.6875
y: -0.33984375
z: 0.12890625
range: 0.827962458134
velocity: 0.0
doppler_bin: 8
bearing: -26.30402565
intensity: 26.3042793274
---
header: 
  seq: 282060
  stamp: 
    secs: 1668121530
    nsecs: 510783142
  frame_id: "ti_mmwave"
point_id: 6
x: 0.72265625
y: -0.306640625
z: 0.228515625
range: 0.871539413929
velocity: 0.0
doppler_bin: 8
bearing: -22.9926948547
intensity: 25.9328613281
---
header: 
  seq: 282061
  stamp: 
    secs: 1668121530
    nsecs: 510794389
  frame_id: "ti_mmwave"
point_id: 7
x: 0.783203125
y: -0.267578125
z: 0.232421875
range: 0.915116369724
velocity: 0.0
doppler_bin: 8
bearing: -18.8625221252
intensity: 26.3648796082
---
header: 
  seq: 282062
  stamp: 
    secs: 1668121530
    nsecs: 510864085
  frame_id: "ti_mmwave"
point_id: 8
x: 0.896484375
y: -0.0
z: 0.494140625
range: 1.08942425251
velocity: 0.0
doppler_bin: 8
bearing: -0.0
intensity: 26.7851829529
---
header: 
  seq: 282063
  stamp: 
    secs: 1668121530
    nsecs: 510878006
  frame_id: "ti_mmwave"
point_id: 9
x: 1.01953125
y: -0.0
z: 0.298828125
range: 1.13300120831
velocity: 0.0
doppler_bin: 8
bearing: -0.0
intensity: 28.1491317749
---
header: 
  seq: 282064
  stamp: 
    secs: 1668121530
    nsecs: 510933815
  frame_id: "ti_mmwave"
point_id: 10
x: 1.068359375
y: 0.03515625
z: 0.27734375
range: 1.1765781641
velocity: 0.0
doppler_bin: 8
bearing: 1.88473856449
intensity: 26.570558548
---
header: 
  seq: 282065
  stamp: 
    secs: 1668121530
    nsecs: 510943493
  frame_id: "ti_mmwave"
point_id: 11
x: 7.927734375
y: 0.248046875
z: -0.244140625
range: 8.45393276215
velocity: 0.0
doppler_bin: 8
bearing: 1.79211401939
intensity: 29.0254669189
---
header: 
  seq: 282066
  stamp: 
    secs: 1668121530
    nsecs: 510950256
  frame_id: "ti_mmwave"
point_id: 12
x: 7.9609375
y: 0.25
z: -0.42578125
range: 8.49750900269
velocity: 0.0
doppler_bin: 8
bearing: 1.79868757725
intensity: 33.7821617126
---
header: 
  seq: 282067
  stamp: 
    secs: 1668121530
    nsecs: 510957170
  frame_id: "ti_mmwave"
point_id: 13
x: 8.001953125
y: 0.25
z: -0.4375
range: 8.5410861969
velocity: 0.0
doppler_bin: 8
bearing: 1.78947401047
intensity: 34.505569458
---
header: 
  seq: 282068
  stamp: 
    secs: 1668121530
    nsecs: 510963982
  frame_id: "ti_mmwave"
point_id: 14
x: 8.0546875
y: 0.251953125
z: -0.0546875
range: 8.58466339111
velocity: 0.0
doppler_bin: 8
bearing: 1.79164552689
intensity: 31.2710475922
---
header: 
  seq: 282069
  stamp: 
    secs: 1668121530
    nsecs: 510969447
  frame_id: "ti_mmwave"
point_id: 15
x: 8.04296875
y: -0.759765625
z: -0.578125
range: 8.62824058533
velocity: 0.0
doppler_bin: 8
bearing: -5.39633750916
intensity: 25.3655853271
---
header: 
  seq: 282070
  stamp: 
    secs: 1668121530
    nsecs: 510975011
  frame_id: "ti_mmwave"
point_id: 16
x: 8.0703125
y: -0.763671875
z: -0.73828125
range: 8.67181682587
velocity: 0.0
doppler_bin: 8
bearing: -5.40564870834
intensity: 25.5144996643
---
header: 
  seq: 282071
  stamp: 
    secs: 1668121530
    nsecs: 510980301
  frame_id: "ti_mmwave"
point_id: 17
x: 0.041015625
y: -0.001953125
z: 0.0
range: 0.0435769706964
velocity: 0.0
doppler_bin: 8
bearing: -2.7263109684
intensity: 27.8031730652
---
header: 
  seq: 282072
  stamp: 
    secs: 1668121530
    nsecs: 510986486
  frame_id: "ti_mmwave"
point_id: 18
x: 0.08203125
y: -0.0078125
z: 0.00390625
range: 0.0871539413929
velocity: 0.0
doppler_bin: 8
bearing: -5.44033241272
intensity: 29.5182304382
---
header: 
  seq: 282073
  stamp: 
    secs: 1668121530
    nsecs: 540615019
  frame_id: "ti_mmwave"
point_id: 1
x: 0.01953125
y: 0.080078125
z: -0.0078125
range: 0.0871539413929
velocity: 0.0
doppler_bin: 8
bearing: 76.2930374146
intensity: 31.3924922943
---
header: 
  seq: 282074
  stamp: 
    secs: 1668121530
    nsecs: 540673190
  frame_id: "ti_mmwave"
point_id: 2
x: 0.029296875
y: 0.119140625
z: -0.0078125
range: 0.130730912089
velocity: 0.0
doppler_bin: 8
bearing: 76.1849746704
intensity: 30.0560951233
---
header: 
  seq: 282075
  stamp: 
    secs: 1668121530
    nsecs: 540689135
  frame_id: "ti_mmwave"
point_id: 3
x: 0.60546875
y: -0.326171875
z: 0.107421875
range: 0.740808486938
velocity: 0.0
doppler_bin: 8
bearing: -28.3117771149
intensity: 27.9795970917
---
header: 
  seq: 282076
  stamp: 
    secs: 1668121530
    nsecs: 540700506
  frame_id: "ti_mmwave"
point_id: 4
x: 0.640625
y: -0.345703125
z: 0.107421875
range: 0.784385442734
velocity: 0.0
doppler_bin: 8
bearing: -28.3528156281
intensity: 28.6864452362
---
header: 
  seq: 282077
  stamp: 
    secs: 1668121530
    nsecs: 540711571
  frame_id: "ti_mmwave"
point_id: 5
x: 0.681640625
y: -0.33984375
z: 0.154296875
range: 0.827962458134
velocity: 0.0
doppler_bin: 8
bearing: -26.4993457794
intensity: 26.6558094025
---
header: 
  seq: 282078
  stamp: 
    secs: 1668121530
    nsecs: 540773108
  frame_id: "ti_mmwave"
point_id: 6
x: 0.7109375
y: -0.33203125
z: 0.228515625
range: 0.871539413929
velocity: 0.0
doppler_bin: 8
bearing: -25.0341262817
intensity: 25.7287158966
---
header: 
  seq: 282079
  stamp: 
    secs: 1668121530
    nsecs: 540785475
  frame_id: "ti_mmwave"
point_id: 7
x: 0.783203125
y: -0.294921875
z: 0.193359375
range: 0.915116369724
velocity: 0.0
doppler_bin: 8
bearing: -20.6342964172
intensity: 26.503074646
---
header: 
  seq: 282080
  stamp: 
    secs: 1668121530
    nsecs: 540795658
  frame_id: "ti_mmwave"
point_id: 8
x: 0.796875
y: -0.060546875
z: 0.5703125
range: 1.04584729671
velocity: 0.0
doppler_bin: 8
bearing: -4.34500741959
intensity: 26.7302093506
---
header: 
  seq: 282081
  stamp: 
    secs: 1668121530
    nsecs: 540806326
  frame_id: "ti_mmwave"
point_id: 9
x: 0.955078125
y: -0.03125
z: 0.3671875
range: 1.08942425251
velocity: 0.0
doppler_bin: 8
bearing: -1.87404000759
intensity: 27.8175544739
---
header: 
  seq: 282082
  stamp: 
    secs: 1668121530
    nsecs: 540816458
  frame_id: "ti_mmwave"
point_id: 10
x: 1.021484375
y: -0.0
z: 0.296875
range: 1.13300120831
velocity: 0.0
doppler_bin: 8
bearing: -0.0
intensity: 28.1491317749
---
header: 
  seq: 282083
  stamp: 
    secs: 1668121530
    nsecs: 540825673
  frame_id: "ti_mmwave"
point_id: 11
x: 1.06640625
y: 0.03515625
z: 0.287109375
range: 1.1765781641
velocity: 0.0
doppler_bin: 8
bearing: 1.8881881237
intensity: 26.0852603912
---
header: 
  seq: 282084
  stamp: 
    secs: 1668121530
    nsecs: 540844890
  frame_id: "ti_mmwave"
point_id: 12
x: 7.927734375
y: 0.248046875
z: -0.244140625
range: 8.45393276215
velocity: 0.0
doppler_bin: 8
bearing: 1.79211401939
intensity: 28.9982051849
---
header: 
  seq: 282085
  stamp: 
    secs: 1668121530
    nsecs: 540855296
  frame_id: "ti_mmwave"
point_id: 13
x: 7.9609375
y: 0.25
z: -0.4296875
range: 8.49750900269
velocity: 0.0
doppler_bin: 8
bearing: 1.79868757725
intensity: 33.7694168091
---
header: 
  seq: 282086
  stamp: 
    secs: 1668121530
    nsecs: 540864433
  frame_id: "ti_mmwave"
point_id: 14
x: 8.001953125
y: 0.25
z: -0.447265625
range: 8.5410861969
velocity: 0.0
doppler_bin: 8
bearing: 1.78947401047
intensity: 34.5086479187
---
header: 
  seq: 282087
  stamp: 
    secs: 1668121530
    nsecs: 540873890
  frame_id: "ti_mmwave"
point_id: 15
x: 8.0546875
y: 0.251953125
z: -0.107421875
range: 8.58466339111
velocity: 0.0
doppler_bin: 8
bearing: 1.79164552689
intensity: 31.3353881836
---
header: 
  seq: 282088
  stamp: 
    secs: 1668121530
    nsecs: 540883521
  frame_id: "ti_mmwave"
point_id: 16
x: 8.05859375
y: -0.505859375
z: -0.642578125
range: 8.62824058533
velocity: 0.0
doppler_bin: 8
bearing: -3.59189581871
intensity: 25.8092498779
---
header: 
  seq: 282089
  stamp: 
    secs: 1668121530
    nsecs: 540892997
  frame_id: "ti_mmwave"
point_id: 17
x: 7.974609375
y: -1.017578125
z: -1.279296875
range: 8.67181682587
velocity: 0.0
doppler_bin: 8
bearing: -7.27177286148
intensity: 25.1719589233
---
header: 
  seq: 282090
  stamp: 
    secs: 1668121530
    nsecs: 540903034
  frame_id: "ti_mmwave"
point_id: 18
x: 0.041015625
y: -0.001953125
z: 0.0
range: 0.0435769706964
velocity: 0.0
doppler_bin: 8
bearing: -2.7263109684
intensity: 27.7887439728
---
header: 
  seq: 282091
  stamp: 
    secs: 1668121530
    nsecs: 540912509
  frame_id: "ti_mmwave"
point_id: 19
x: 0.08203125
y: -0.0078125
z: 0.00390625
range: 0.0871539413929
velocity: 0.0
doppler_bin: 8
bearing: -5.44033241272
intensity: 29.5230808258
---
header: 
  seq: 282092
  stamp: 
    secs: 1668121530
    nsecs: 586937854
  frame_id: "ti_mmwave"
point_id: 1
x: 0.01953125
y: 0.080078125
z: -0.0078125
range: 0.0871539413929
velocity: 0.0
doppler_bin: 8
bearing: 76.2930374146
intensity: 31.389339447
---
header: 
  seq: 282093
  stamp: 
    secs: 1668121530
    nsecs: 586992882
  frame_id: "ti_mmwave"
point_id: 2
x: 0.029296875
y: 0.119140625
z: -0.0078125
range: 0.130730912089
velocity: 0.0
doppler_bin: 8
bearing: 76.1849746704
intensity: 30.0560951233
---
header: 
  seq: 282094
  stamp: 
    secs: 1668121530
    nsecs: 587002895
  frame_id: "ti_mmwave"
point_id: 3
x: 0.59375
y: -0.34765625
z: 0.09765625
range: 0.740808486938
velocity: 0.0
doppler_bin: 8
bearing: -30.3500957489
intensity: 28.0550079346
---
header: 
  seq: 282095
  stamp: 
    secs: 1668121530
    nsecs: 587008152
  frame_id: "ti_mmwave"
point_id: 4
x: 0.640625
y: -0.345703125
z: 0.111328125
range: 0.784385442734
velocity: 0.0
doppler_bin: 8
bearing: -28.3528156281
intensity: 28.727388382
---
header: 
  seq: 282096
  stamp: 
    secs: 1668121530
    nsecs: 587093575
  frame_id: "ti_mmwave"
point_id: 5
x: 0.677734375
y: -0.33984375
z: 0.173828125
range: 0.827962458134
velocity: 0.0
doppler_bin: 8
bearing: -26.631061554
intensity: 26.5513839722
---
header: 
  seq: 282097
  stamp: 
    secs: 1668121530
    nsecs: 587119838
  frame_id: "ti_mmwave"
point_id: 6
x: 0.73046875
y: -0.306640625
z: 0.205078125
range: 0.871539413929
velocity: 0.0
doppler_bin: 8
bearing: -22.771987915
intensity: 25.5388298035
---
header: 
  seq: 282098
  stamp: 
    secs: 1668121530
    nsecs: 587126540
  frame_id: "ti_mmwave"
point_id: 7
x: 0.7890625
y: -0.294921875
z: 0.16796875
range: 0.915116369724
velocity: 0.0
doppler_bin: 8
bearing: -20.493850708
intensity: 26.8574180603
---
header: 
  seq: 282099
  stamp: 
    secs: 1668121530
    nsecs: 587133282
  frame_id: "ti_mmwave"
point_id: 8
x: 0.9140625
y: -0.060546875
z: 0.3515625
range: 1.04584729671
velocity: 0.0
doppler_bin: 8
bearing: -3.78969717026
intensity: 27.2672729492
---
header: 
  seq: 282100
  stamp: 
    secs: 1668121530
    nsecs: 587139518
  frame_id: "ti_mmwave"
point_id: 9
x: 0.974609375
y: -0.03125
z: 0.30859375
range: 1.08942425251
velocity: 0.0
doppler_bin: 8
bearing: -1.83651006222
intensity: 27.8461723328
---
header: 
  seq: 282101
  stamp: 
    secs: 1668121530
    nsecs: 587145034
  frame_id: "ti_mmwave"
point_id: 10
x: 1.01953125
y: -0.0
z: 0.3046875
range: 1.13300120831
velocity: 0.0
doppler_bin: 8
bearing: -0.0
intensity: 27.6117572784
---
header: 
  seq: 282102
  stamp: 
    secs: 1668121530
    nsecs: 587150336
  frame_id: "ti_mmwave"
point_id: 11
x: 1.052734375
y: -0.0
z: 0.333984375
range: 1.1765781641
velocity: 0.0
doppler_bin: 8
bearing: -0.0
intensity: 25.1719589233
---
header: 
  seq: 282103
  stamp: 
    secs: 1668121530
    nsecs: 587155348
  frame_id: "ti_mmwave"
point_id: 12
x: 7.927734375
y: 0.248046875
z: -0.2421875
range: 8.45393276215
velocity: 0.0
doppler_bin: 8
bearing: 1.79211401939
intensity: 28.9927310944
---
header: 
  seq: 282104
  stamp: 
    secs: 1668121530
    nsecs: 587160439
  frame_id: "ti_mmwave"
point_id: 13
x: 7.9609375
y: 0.25
z: -0.42578125
range: 8.49750900269
velocity: 0.0
doppler_bin: 8
bearing: 1.79868757725
intensity: 33.7803421021
---
header: 
  seq: 282105
  stamp: 
    secs: 1668121530
    nsecs: 587165534
  frame_id: "ti_mmwave"
point_id: 14
x: 8.001953125
y: 0.25
z: -0.439453125
range: 8.5410861969
velocity: 0.0
doppler_bin: 8
bearing: 1.78947401047
intensity: 34.5331840515
---
header: 
  seq: 282106
  stamp: 
    secs: 1668121530
    nsecs: 587177839
  frame_id: "ti_mmwave"
point_id: 15
x: 8.0546875
y: 0.251953125
z: -0.09765625
range: 8.58466339111
velocity: 0.0
doppler_bin: 8
bearing: 1.79164552689
intensity: 31.3672065735
---
header: 
  seq: 282107
  stamp: 
    secs: 1668121530
    nsecs: 587202922
  frame_id: "ti_mmwave"
point_id: 16
x: 8.08203125
y: -0.505859375
z: -0.15234375
range: 8.62824058533
velocity: 0.0
doppler_bin: 8
bearing: -3.58150625229
intensity: 25.490032196
---
header: 
  seq: 282108
  stamp: 
    secs: 1668121530
    nsecs: 587209328
  frame_id: "ti_mmwave"
point_id: 17
x: 8.103515625
y: -0.763671875
z: 0.138671875
range: 8.67181682587
velocity: 0.0
doppler_bin: 8
bearing: -5.38363027573
intensity: 25.1321754456
---
header: 
  seq: 282109
  stamp: 
    secs: 1668121530
    nsecs: 587215171
  frame_id: "ti_mmwave"
point_id: 18
x: 0.041015625
y: -0.001953125
z: 0.0
range: 0.0435769706964
velocity: 0.0
doppler_bin: 8
bearing: -2.7263109684
intensity: 27.7815132141
---
header: 
  seq: 282110
  stamp: 
    secs: 1668121530
    nsecs: 587221220
  frame_id: "ti_mmwave"
point_id: 19
x: 0.08203125
y: -0.0078125
z: 0.00390625
range: 0.0871539413929
velocity: 0.0
doppler_bin: 8
bearing: -5.44033241272
intensity: 29.5182304382
---
header: 
  seq: 282111
  stamp: 
    secs: 1668121530
    nsecs: 587488324
  frame_id: "ti_mmwave"
point_id: 1
x: 0.01953125
y: 0.080078125
z: -0.0078125
range: 0.0871539413929
velocity: 0.0
doppler_bin: 8
bearing: 76.2930374146
intensity: 31.389339447
---
header: 
  seq: 282112
  stamp: 
    secs: 1668121530
    nsecs: 587511143
  frame_id: "ti_mmwave"
point_id: 2
x: 0.029296875
y: 0.119140625
z: -0.0078125
range: 0.130730912089
velocity: 0.0
doppler_bin: 8
bearing: 76.1849746704
intensity: 30.0560951233
---
header: 
  seq: 282113
  stamp: 
    secs: 1668121530
    nsecs: 587524200
  frame_id: "ti_mmwave"
point_id: 3
x: 0.59375
y: -0.34765625
z: 0.095703125
range: 0.740808486938
velocity: 0.0
doppler_bin: 8
bearing: -30.3500957489
intensity: 28.4695529938
---
header: 
  seq: 282114
  stamp: 
    secs: 1668121530
    nsecs: 587561404
  frame_id: "ti_mmwave"
point_id: 4
x: 0.62890625
y: -0.3671875
z: 0.1015625
range: 0.784385442734
velocity: 0.0
doppler_bin: 8
bearing: -30.2785606384
intensity: 29.0363254547
---
header: 
  seq: 282115
  stamp: 
    secs: 1668121530
    nsecs: 587579579
  frame_id: "ti_mmwave"
point_id: 5
x: 0.6640625
y: -0.365234375
z: 0.173828125
range: 0.827962458134
velocity: 0.0
doppler_bin: 8
bearing: -28.810792923
intensity: 26.3548374176
---
header: 
  seq: 282116
  stamp: 
    secs: 1668121530
    nsecs: 587611092
  frame_id: "ti_mmwave"
point_id: 6
x: 0.8046875
y: -0.267578125
z: 0.134765625
range: 0.915116369724
velocity: 0.0
doppler_bin: 8
bearing: -18.3932170868
intensity: 26.9108142853
---
header: 
  seq: 282117
  stamp: 
    secs: 1668121530
    nsecs: 587618609
  frame_id: "ti_mmwave"
point_id: 7
x: 0.96484375
y: -0.060546875
z: 0.173828125
range: 1.04584729671
velocity: 0.0
doppler_bin: 8
bearing: -3.59077548981
intensity: 27.2509460449
---
header: 
  seq: 282118
  stamp: 
    secs: 1668121530
    nsecs: 587636012
  frame_id: "ti_mmwave"
point_id: 8
x: 0.994140625
y: -0.03125
z: 0.23828125
range: 1.08942425251
velocity: 0.0
doppler_bin: 8
bearing: -1.80045318604
intensity: 27.8958072662
---
header: 
  seq: 282119
  stamp: 
    secs: 1668121530
    nsecs: 587652825
  frame_id: "ti_mmwave"
point_id: 9
x: 1.03125
y: -0.0
z: 0.255859375
range: 1.13300120831
velocity: 0.0
doppler_bin: 8
bearing: -0.0
intensity: 27.7085208893
---
header: 
  seq: 282120
  stamp: 
    secs: 1668121530
    nsecs: 587657463
  frame_id: "ti_mmwave"
point_id: 10
x: 1.06640625
y: -0.0
z: 0.28515625
range: 1.1765781641
velocity: 0.0
doppler_bin: 8
bearing: -0.0
intensity: 25.3275432587
---
header: 
  seq: 282121
  stamp: 
    secs: 1668121530
    nsecs: 587671719
  frame_id: "ti_mmwave"
point_id: 11
x: 7.927734375
y: 0.248046875
z: -0.236328125
range: 8.45393276215
velocity: 0.0
doppler_bin: 8
bearing: 1.79211401939
intensity: 28.9597473145
---
header: 
  seq: 282122
  stamp: 
    secs: 1668121530
    nsecs: 587676607
  frame_id: "ti_mmwave"
point_id: 12
x: 7.9609375
y: 0.25
z: -0.42578125
range: 8.49750900269
velocity: 0.0
doppler_bin: 8
bearing: 1.79868757725
intensity: 33.7675933838
---
header: 
  seq: 282123
  stamp: 
    secs: 1668121530
    nsecs: 587702186
  frame_id: "ti_mmwave"
point_id: 13
x: 8.001953125
y: 0.25
z: -0.44921875
range: 8.5410861969
velocity: 0.0
doppler_bin: 8
bearing: 1.78947401047
intensity: 34.5408210754
---
header: 
  seq: 282124
  stamp: 
    secs: 1668121530
    nsecs: 587708935
  frame_id: "ti_mmwave"
point_id: 14
x: 8.0546875
y: 0.251953125
z: -0.11328125
range: 8.58466339111
velocity: 0.0
doppler_bin: 8
bearing: 1.79164552689
intensity: 31.427022934
---
header: 
  seq: 282125
  stamp: 
    secs: 1668121530
    nsecs: 587721283
  frame_id: "ti_mmwave"
point_id: 15
x: 8.0390625
y: -0.759765625
z: -0.642578125
range: 8.62824058533
velocity: 0.0
doppler_bin: 8
bearing: -5.39894342422
intensity: 26.0097293854
---
header: 
  seq: 282126
  stamp: 
    secs: 1668121530
    nsecs: 587725613
  frame_id: "ti_mmwave"
point_id: 16
x: 8.048828125
y: -1.017578125
z: -0.673828125
range: 8.67181682587
velocity: 0.0
doppler_bin: 8
bearing: -7.20542764664
intensity: 25.7634143829
---
header: 
  seq: 282127
  stamp: 
    secs: 1668121530
    nsecs: 587738192
  frame_id: "ti_mmwave"
point_id: 17
x: 0.041015625
y: -0.001953125
z: 0.0
range: 0.0435769706964
velocity: 0.0
doppler_bin: 8
bearing: -2.7263109684
intensity: 27.7815132141
---
header: 
  seq: 282128
  stamp: 
    secs: 1668121530
    nsecs: 587749483
  frame_id: "ti_mmwave"
point_id: 18
x: 0.08203125
y: -0.0078125
z: 0.00390625
range: 0.0871539413929
velocity: 0.0
doppler_bin: 8
bearing: -5.44033241272
intensity: 29.5230808258
---
header: 
  seq: 282129
  stamp: 
    secs: 1668121530
    nsecs: 645560136
  frame_id: "ti_mmwave"
point_id: 1
x: 0.01953125
y: 0.080078125
z: -0.0078125
range: 0.0871539413929
velocity: 0.0
doppler_bin: 8
bearing: 76.2930374146
intensity: 31.389339447
---
header: 
  seq: 282130
  stamp: 
    secs: 1668121530
    nsecs: 645604729
  frame_id: "ti_mmwave"
point_id: 2
x: 0.029296875
y: 0.119140625
z: -0.0078125
range: 0.130730912089
velocity: 0.0
doppler_bin: 8
bearing: 76.1849746704
intensity: 30.0518054962
---
header: 
  seq: 282131
  stamp: 
    secs: 1668121530
    nsecs: 645614956
  frame_id: "ti_mmwave"
point_id: 3
x: 0.595703125
y: -0.34765625
z: 0.09375
range: 0.740808486938
velocity: 0.0
doppler_bin: 8
bearing: -30.2681159973
intensity: 28.0821094513
---
header: 
  seq: 282132
  stamp: 
    secs: 1668121530
    nsecs: 645641904
  frame_id: "ti_mmwave"
point_id: 4
x: 0.640625
y: -0.345703125
z: 0.107421875
range: 0.784385442734
velocity: 0.0
doppler_bin: 8
bearing: -28.3528156281
intensity: 28.7390155792
---
header: 
  seq: 282133
  stamp: 
    secs: 1668121530
    nsecs: 645649470
  frame_id: "ti_mmwave"
point_id: 5
x: 0.662109375
y: -0.365234375
z: 0.18359375
range: 0.827962458134
velocity: 0.0
doppler_bin: 8
bearing: -28.8821105957
intensity: 26.2838897705
---
header: 
  seq: 282134
  stamp: 
    secs: 1668121530
    nsecs: 645656311
  frame_id: "ti_mmwave"
point_id: 6
x: 0.794921875
y: -0.294921875
z: 0.13671875
range: 0.915116369724
velocity: 0.0
doppler_bin: 8
bearing: -20.3552265167
intensity: 27.1516742706
---
header: 
  seq: 282135
  stamp: 
    secs: 1668121530
    nsecs: 645662630
  frame_id: "ti_mmwave"
point_id: 7
x: 0.978515625
y: -0.03125
z: 0.0625
range: 1.04584729671
velocity: 0.0
doppler_bin: 8
bearing: -1.82918357849
intensity: 27.8031730652
---
header: 
  seq: 282136
  stamp: 
    secs: 1668121530
    nsecs: 645668894
  frame_id: "ti_mmwave"
point_id: 8
x: 1.005859375
y: -0.03125
z: 0.18359375
range: 1.08942425251
velocity: 0.0
doppler_bin: 8
bearing: -1.7794907093
intensity: 28.4757270813
---
header: 
  seq: 282137
  stamp: 
    secs: 1668121530
    nsecs: 645673593
  frame_id: "ti_mmwave"
point_id: 9
x: 1.037109375
y: -0.0
z: 0.234375
range: 1.13300120831
velocity: 0.0
doppler_bin: 8
bearing: -0.0
intensity: 28.4509811401
---
header: 
  seq: 282138
  stamp: 
    secs: 1668121530
    nsecs: 645683120
  frame_id: "ti_mmwave"
point_id: 10
x: 1.0703125
y: -0.0
z: 0.26953125
range: 1.1765781641
velocity: 0.0
doppler_bin: 8
bearing: -0.0
intensity: 26.3648796082
---
header: 
  seq: 282139
  stamp: 
    secs: 1668121530
    nsecs: 645705496
  frame_id: "ti_mmwave"
point_id: 11
x: 7.9296875
y: 0.248046875
z: -0.224609375
range: 8.45393276215
velocity: 0.0
doppler_bin: 8
bearing: 1.79167306423
intensity: 28.9209461212
---
header: 
  seq: 282140
  stamp: 
    secs: 1668121530
    nsecs: 645711993
  frame_id: "ti_mmwave"
point_id: 12
x: 7.9609375
y: 0.25
z: -0.4296875
range: 8.49750900269
velocity: 0.0
doppler_bin: 8
bearing: 1.79868757725
intensity: 33.7291183472
---
header: 
  seq: 282141
  stamp: 
    secs: 1668121530
    nsecs: 645717849
  frame_id: "ti_mmwave"
point_id: 13
x: 8.0
y: 0.25
z: -0.45703125
range: 8.5410861969
velocity: 0.0
doppler_bin: 8
bearing: 1.7899106741
intensity: 34.4762306213
---
header: 
  seq: 282142
  stamp: 
    secs: 1668121530
    nsecs: 645723912
  frame_id: "ti_mmwave"
point_id: 14
x: 8.0546875
y: 0.251953125
z: -0.0859375
range: 8.58466339111
velocity: 0.0
doppler_bin: 8
bearing: 1.79164552689
intensity: 31.3608608246
---
header: 
  seq: 282143
  stamp: 
    secs: 1668121530
    nsecs: 645756417
  frame_id: "ti_mmwave"
point_id: 15
x: 8.041015625
y: -0.759765625
z: -0.6171875
range: 8.62824058533
velocity: 0.0
doppler_bin: 8
bearing: -5.39763975143
intensity: 25.3907604218
---
header: 
  seq: 282144
  stamp: 
    secs: 1668121530
    nsecs: 645763117
  frame_id: "ti_mmwave"
point_id: 16
x: 8.060546875
y: -0.763671875
z: -0.8359375
range: 8.67181682587
velocity: 0.0
doppler_bin: 8
bearing: -5.41215848923
intensity: 25.3655853271
---
header: 
  seq: 282145
  stamp: 
    secs: 1668121530
    nsecs: 645767766
  frame_id: "ti_mmwave"
point_id: 17
x: 0.041015625
y: -0.001953125
z: 0.0
range: 0.0435769706964
velocity: 0.0
doppler_bin: 8
bearing: -2.7263109684
intensity: 27.7815132141
---
header: 
  seq: 282146
  stamp: 
    secs: 1668121530
    nsecs: 645788079
  frame_id: "ti_mmwave"
point_id: 18
x: 0.08203125
y: -0.0078125
z: 0.00390625
range: 0.0871539413929
velocity: 0.0
doppler_bin: 8
bearing: -5.44033241272
intensity: 29.5182304382
---
header: 
  seq: 282147
  stamp: 
    secs: 1668121530
    nsecs: 675602256
  frame_id: "ti_mmwave"
point_id: 1
x: 0.01953125
y: 0.080078125
z: -0.0078125
range: 0.0871539413929
velocity: 0.0
doppler_bin: 8
bearing: 76.2930374146
intensity: 31.389339447
---
header: 
  seq: 282148
  stamp: 
    secs: 1668121530
    nsecs: 675683262
  frame_id: "ti_mmwave"
point_id: 2
x: 0.029296875
y: 0.119140625
z: -0.0078125
range: 0.130730912089
velocity: 0.0
doppler_bin: 8
bearing: 76.1849746704
intensity: 30.0560951233
---
header: 
  seq: 282149
  stamp: 
    secs: 1668121530
    nsecs: 675706233
  frame_id: "ti_mmwave"
point_id: 3
x: 0.59375
y: -0.34765625
z: 0.1015625
range: 0.740808486938
velocity: 0.0
doppler_bin: 8
bearing: -30.3500957489
intensity: 28.4198474884
---
header: 
  seq: 282150
  stamp: 
    secs: 1668121530
    nsecs: 675770044
  frame_id: "ti_mmwave"
point_id: 4
x: 0.62890625
y: -0.3671875
z: 0.107421875
range: 0.784385442734
velocity: 0.0
doppler_bin: 8
bearing: -30.2785606384
intensity: 29.0471553802
---
header: 
  seq: 282151
  stamp: 
    secs: 1668121530
    nsecs: 675788494
  frame_id: "ti_mmwave"
point_id: 5
x: 0.64453125
y: -0.388671875
z: 0.19140625
range: 0.827962458134
velocity: 0.0
doppler_bin: 8
bearing: -31.0912532806
intensity: 26.5224628448
---
header: 
  seq: 282152
  stamp: 
    secs: 1668121530
    nsecs: 675802851
  frame_id: "ti_mmwave"
point_id: 6
x: 0.806640625
y: -0.267578125
z: 0.125
range: 0.915116369724
velocity: 0.0
doppler_bin: 8
bearing: -18.3516693115
intensity: 27.283536911
---
header: 
  seq: 282153
  stamp: 
    secs: 1668121530
    nsecs: 675816666
  frame_id: "ti_mmwave"
point_id: 7
x: 0.9765625
y: -0.060546875
z: 0.076171875
range: 1.04584729671
velocity: 0.0
doppler_bin: 8
bearing: -3.54779696465
intensity: 27.6937732697
---
header: 
  seq: 282154
  stamp: 
    secs: 1668121530
    nsecs: 675833527
  frame_id: "ti_mmwave"
point_id: 8
x: 1.001953125
y: -0.03125
z: 0.20703125
range: 1.08942425251
velocity: 0.0
doppler_bin: 8
bearing: -1.78642380238
intensity: 28.4633712769
---
header: 
  seq: 282155
  stamp: 
    secs: 1668121530
    nsecs: 675846202
  frame_id: "ti_mmwave"
point_id: 9
x: 1.0234375
y: -0.0
z: 0.291015625
range: 1.13300120831
velocity: 0.0
doppler_bin: 8
bearing: -0.0
intensity: 28.4385547638
---
header: 
  seq: 282156
  stamp: 
    secs: 1668121530
    nsecs: 675856125
  frame_id: "ti_mmwave"
point_id: 10
x: 1.046875
y: -0.0
z: 0.349609375
range: 1.1765781641
velocity: 0.0
doppler_bin: 8
bearing: -0.0
intensity: 26.3848934174
---
header: 
  seq: 282157
  stamp: 
    secs: 1668121530
    nsecs: 675863217
  frame_id: "ti_mmwave"
point_id: 11
x: 7.927734375
y: 0.248046875
z: -0.236328125
range: 8.45393276215
velocity: 0.0
doppler_bin: 8
bearing: 1.79211401939
intensity: 28.9320678711
---
header: 
  seq: 282158
  stamp: 
    secs: 1668121530
    nsecs: 675872542
  frame_id: "ti_mmwave"
point_id: 12
x: 7.9609375
y: 0.25
z: -0.431640625
range: 8.49750900269
velocity: 0.0
doppler_bin: 8
bearing: 1.79868757725
intensity: 33.7493171692
---
header: 
  seq: 282159
  stamp: 
    secs: 1668121530
    nsecs: 675906665
  frame_id: "ti_mmwave"
point_id: 13
x: 8.0
y: 0.25
z: -0.455078125
range: 8.5410861969
velocity: 0.0
doppler_bin: 8
bearing: 1.7899106741
intensity: 34.514793396
---
header: 
  seq: 282160
  stamp: 
    secs: 1668121530
    nsecs: 675915627
  frame_id: "ti_mmwave"
point_id: 14
x: 8.0546875
y: 0.251953125
z: -0.095703125
range: 8.58466339111
velocity: 0.0
doppler_bin: 8
bearing: 1.79164552689
intensity: 31.3767051697
---
header: 
  seq: 282161
  stamp: 
    secs: 1668121530
    nsecs: 675923822
  frame_id: "ti_mmwave"
point_id: 15
x: 8.052734375
y: -0.759765625
z: -0.435546875
range: 8.62824058533
velocity: 0.0
doppler_bin: 8
bearing: -5.38983154297
intensity: 25.3147888184
---
header: 
  seq: 282162
  stamp: 
    secs: 1668121530
    nsecs: 675932105
  frame_id: "ti_mmwave"
point_id: 16
x: 8.09765625
y: -0.763671875
z: -0.333984375
range: 8.67181682587
velocity: 0.0
doppler_bin: 8
bearing: -5.38750267029
intensity: 24.8995857239
---
header: 
  seq: 282163
  stamp: 
    secs: 1668121530
    nsecs: 675967154
  frame_id: "ti_mmwave"
point_id: 17
x: 0.041015625
y: -0.001953125
z: 0.0
range: 0.0435769706964
velocity: 0.0
doppler_bin: 8
bearing: -2.7263109684
intensity: 27.7887439728
---
header: 
  seq: 282164
  stamp: 
    secs: 1668121530
    nsecs: 675974940
  frame_id: "ti_mmwave"
point_id: 18
x: 0.08203125
y: -0.005859375
z: 0.001953125
range: 0.0871539413929
velocity: 0.0
doppler_bin: 8
bearing: -4.08561658859
intensity: 29.5182304382
---
header: 
  seq: 282165
  stamp: 
    secs: 1668121530
    nsecs: 705619628
  frame_id: "ti_mmwave"
point_id: 1
x: 0.01953125
y: 0.080078125
z: -0.0078125
range: 0.0871539413929
velocity: 0.0
doppler_bin: 8
bearing: 76.2930374146
intensity: 31.389339447
---
header: 
  seq: 282166
  stamp: 
    secs: 1668121530
    nsecs: 705662091
  frame_id: "ti_mmwave"
point_id: 2
x: 0.029296875
y: 0.119140625
z: -0.0078125
range: 0.130730912089
velocity: 0.0
doppler_bin: 8
bearing: 76.1849746704
intensity: 30.0560951233
---
header: 
  seq: 282167
  stamp: 
    secs: 1668121530
    nsecs: 705675079
  frame_id: "ti_mmwave"
point_id: 3
x: 0.583984375
y: -0.369140625
z: 0.083984375
range: 0.740808486938
velocity: 0.0
doppler_bin: 8
bearing: -32.2972679138
intensity: 29.0955600739
---
header: 
  seq: 282168
  stamp: 
    secs: 1668121530
    nsecs: 705684138
  frame_id: "ti_mmwave"
point_id: 4
x: 0.62890625
y: -0.3671875
z: 0.1015625
range: 0.784385442734
velocity: 0.0
doppler_bin: 8
bearing: -30.2785606384
intensity: 29.5856380463
---
header: 
  seq: 282169
  stamp: 
    secs: 1668121530
    nsecs: 705692093
  frame_id: "ti_mmwave"
point_id: 5
x: 0.64453125
y: -0.388671875
z: 0.193359375
range: 0.827962458134
velocity: 0.0
doppler_bin: 8
bearing: -31.0912532806
intensity: 26.6651802063
---
header: 
  seq: 282170
  stamp: 
    secs: 1668121530
    nsecs: 705699086
  frame_id: "ti_mmwave"
point_id: 6
x: 0.8046875
y: -0.267578125
z: 0.130859375
range: 0.915116369724
velocity: 0.0
doppler_bin: 8
bearing: -18.3932170868
intensity: 27.4350967407
---
header: 
  seq: 282171
  stamp: 
    secs: 1668121530
    nsecs: 705706610
  frame_id: "ti_mmwave"
point_id: 7
x: 0.9765625
y: -0.060546875
z: 0.07421875
range: 1.04584729671
velocity: 0.0
doppler_bin: 8
bearing: -3.54779696465
intensity: 28.034570694
---
header: 
  seq: 282172
  stamp: 
    secs: 1668121530
    nsecs: 705713488
  frame_id: "ti_mmwave"
point_id: 8
x: 1.001953125
y: -0.03125
z: 0.205078125
range: 1.08942425251
velocity: 0.0
doppler_bin: 8
bearing: -1.78642380238
intensity: 28.3632411957
---
header: 
  seq: 282173
  stamp: 
    secs: 1668121530
    nsecs: 705731062
  frame_id: "ti_mmwave"
point_id: 9
x: 1.0234375
y: -0.033203125
z: 0.2890625
range: 1.13300120831
velocity: 0.0
doppler_bin: 8
bearing: -1.85818088055
intensity: 28.0071716309
---
header: 
  seq: 282174
  stamp: 
    secs: 1668121530
    nsecs: 705870905
  frame_id: "ti_mmwave"
point_id: 10
x: 1.041015625
y: -0.0
z: 0.3671875
range: 1.1765781641
velocity: 0.0
doppler_bin: 8
bearing: -0.0
intensity: 25.7634143829
---
header: 
  seq: 282175
  stamp: 
    secs: 1668121530
    nsecs: 705880931
  frame_id: "ti_mmwave"
point_id: 11
x: 7.927734375
y: 0.248046875
z: -0.236328125
range: 8.45393276215
velocity: 0.0
doppler_bin: 8
bearing: 1.79211401939
intensity: 28.9320678711
---
header: 
  seq: 282176
  stamp: 
    secs: 1668121530
    nsecs: 705887812
  frame_id: "ti_mmwave"
point_id: 12
x: 7.9609375
y: 0.25
z: -0.431640625
range: 8.49750900269
velocity: 0.0
doppler_bin: 8
bearing: 1.79868757725
intensity: 33.7474822998
---
header: 
  seq: 282177
  stamp: 
    secs: 1668121530
    nsecs: 705895126
  frame_id: "ti_mmwave"
point_id: 13
x: 8.0
y: 0.25
z: -0.453125
range: 8.5410861969
velocity: 0.0
doppler_bin: 8
bearing: 1.7899106741
intensity: 34.504032135
---
header: 
  seq: 282178
  stamp: 
    secs: 1668121530
    nsecs: 705901823
  frame_id: "ti_mmwave"
point_id: 14
x: 8.0546875
y: 0.251953125
z: -0.0859375
range: 8.58466339111
velocity: 0.0
doppler_bin: 8
bearing: 1.79164552689
intensity: 31.383026123
---
header: 
  seq: 282179
  stamp: 
    secs: 1668121530
    nsecs: 705909129
  frame_id: "ti_mmwave"
point_id: 15
x: 8.044921875
y: -0.759765625
z: -0.552734375
range: 8.62824058533
velocity: 0.0
doppler_bin: 8
bearing: -5.39503479004
intensity: 25.6229286194
---
header: 
  seq: 282180
  stamp: 
    secs: 1668121530
    nsecs: 705915953
  frame_id: "ti_mmwave"
point_id: 16
x: 8.05859375
y: -1.017578125
z: -0.525390625
range: 8.67181682587
velocity: 0.0
doppler_bin: 8
bearing: -7.19678783417
intensity: 25.5144996643
---
header: 
  seq: 282181
  stamp: 
    secs: 1668121530
    nsecs: 705922530
  frame_id: "ti_mmwave"
point_id: 17
x: 0.041015625
y: -0.001953125
z: 0.0
range: 0.0435769706964
velocity: 0.0
doppler_bin: 8
bearing: -2.7263109684
intensity: 27.7959651947
---
header: 
  seq: 282182
  stamp: 
    secs: 1668121530
    nsecs: 705929613
  frame_id: "ti_mmwave"
point_id: 18
x: 0.08203125
y: -0.0078125
z: 0.00390625
range: 0.0871539413929
velocity: 0.0
doppler_bin: 8
bearing: -5.44033241272
intensity: 29.527923584
---
header: 
  seq: 282183
  stamp: 
    secs: 1668121530
    nsecs: 750634113
  frame_id: "ti_mmwave"
point_id: 1
x: 0.01953125
y: 0.080078125
z: -0.0078125
range: 0.0871539413929
velocity: 0.0
doppler_bin: 8
bearing: 76.2930374146
intensity: 31.3924922943
---
header: 
  seq: 282184
  stamp: 
    secs: 1668121530
    nsecs: 750670152
  frame_id: "ti_mmwave"
point_id: 2
x: 0.029296875
y: 0.119140625
z: -0.0078125
range: 0.130730912089
velocity: 0.0
doppler_bin: 8
bearing: 76.1849746704
intensity: 30.0560951233
---
header: 
  seq: 282185
  stamp: 
    secs: 1668121530
    nsecs: 750675991
  frame_id: "ti_mmwave"
point_id: 3
x: 0.58203125
y: -0.369140625
z: 0.0859375
range: 0.740808486938
velocity: 0.0
doppler_bin: 8
bearing: -32.384021759
intensity: 28.7909584045
---
header: 
  seq: 282186
  stamp: 
    secs: 1668121530
    nsecs: 750679683
  frame_id: "ti_mmwave"
point_id: 4
x: 0.62890625
y: -0.3671875
z: 0.10546875
range: 0.784385442734
velocity: 0.0
doppler_bin: 8
bearing: -30.2785606384
intensity: 29.380191803
---
header: 
  seq: 282187
  stamp: 
    secs: 1668121530
    nsecs: 750684026
  frame_id: "ti_mmwave"
point_id: 5
x: 0.638671875
y: -0.388671875
z: 0.2109375
range: 0.827962458134
velocity: 0.0
doppler_bin: 8
bearing: -31.323135376
intensity: 26.5127792358
---
header: 
  seq: 282188
  stamp: 
    secs: 1668121530
    nsecs: 750687638
  frame_id: "ti_mmwave"
point_id: 6
x: 0.806640625
y: -0.267578125
z: 0.125
range: 0.915116369724
velocity: 0.0
doppler_bin: 8
bearing: -18.3516693115
intensity: 27.4429302216
---
header: 
  seq: 282189
  stamp: 
    secs: 1668121530
    nsecs: 750696112
  frame_id: "ti_mmwave"
point_id: 7
x: 0.9765625
y: -0.060546875
z: 0.08984375
range: 1.04584729671
velocity: 0.0
doppler_bin: 8
bearing: -3.54779696465
intensity: 27.8816833496
---
header: 
  seq: 282190
  stamp: 
    secs: 1668121530
    nsecs: 750700196
  frame_id: "ti_mmwave"
point_id: 8
x: 0.998046875
y: -0.064453125
z: 0.2109375
range: 1.08942425251
velocity: 0.0
doppler_bin: 8
bearing: -3.69498801231
intensity: 28.0208930969
---
header: 
  seq: 282191
  stamp: 
    secs: 1668121530
    nsecs: 750774726
  frame_id: "ti_mmwave"
point_id: 9
x: 1.017578125
y: -0.033203125
z: 0.306640625
range: 1.13300120831
velocity: 0.0
doppler_bin: 8
bearing: -1.86887276173
intensity: 27.4115161896
---
header: 
  seq: 282192
  stamp: 
    secs: 1668121530
    nsecs: 750784865
  frame_id: "ti_mmwave"
point_id: 10
x: 1.03125
y: -0.0
z: 0.396484375
range: 1.1765781641
velocity: 0.0
doppler_bin: 8
bearing: -0.0
intensity: 25.3529415131
---
header: 
  seq: 282193
  stamp: 
    secs: 1668121530
    nsecs: 750791066
  frame_id: "ti_mmwave"
point_id: 11
x: 7.927734375
y: 0.248046875
z: -0.234375
range: 8.45393276215
velocity: 0.0
doppler_bin: 8
bearing: 1.79211401939
intensity: 28.9320678711
---
header: 
  seq: 282194
  stamp: 
    secs: 1668121530
    nsecs: 750798977
  frame_id: "ti_mmwave"
point_id: 12
x: 7.9609375
y: 0.25
z: -0.42578125
range: 8.49750900269
velocity: 0.0
doppler_bin: 8
bearing: 1.79868757725
intensity: 33.740146637
---
header: 
  seq: 282195
  stamp: 
    secs: 1668121530
    nsecs: 750806540
  frame_id: "ti_mmwave"
point_id: 13
x: 8.001953125
y: 0.25
z: -0.443359375
range: 8.5410861969
velocity: 0.0
doppler_bin: 8
bearing: 1.78947401047
intensity: 34.4963264465
---
header: 
  seq: 282196
  stamp: 
    secs: 1668121530
    nsecs: 750814627
  frame_id: "ti_mmwave"
point_id: 14
x: 8.0546875
y: 0.251953125
z: -0.0390625
range: 8.58466339111
velocity: 0.0
doppler_bin: 8
bearing: 1.79164552689
intensity: 31.3353881836
---
header: 
  seq: 282197
  stamp: 
    secs: 1668121530
    nsecs: 750821296
  frame_id: "ti_mmwave"
point_id: 15
x: 8.03515625
y: -0.759765625
z: -0.68359375
range: 8.62824058533
velocity: 0.0
doppler_bin: 8
bearing: -5.40155315399
intensity: 25.8546066284
---
header: 
  seq: 282198
  stamp: 
    secs: 1668121530
    nsecs: 750830626
  frame_id: "ti_mmwave"
point_id: 16
x: 8.048828125
y: -1.017578125
z: -0.669921875
range: 8.67181682587
velocity: 0.0
doppler_bin: 8
bearing: -7.20542764664
intensity: 26.1066017151
---
header: 
  seq: 282199
  stamp: 
    secs: 1668121530
    nsecs: 750853017
  frame_id: "ti_mmwave"
point_id: 17
x: 0.041015625
y: -0.001953125
z: 0.0
range: 0.0435769706964
velocity: 0.0
doppler_bin: 8
bearing: -2.7263109684
intensity: 27.7959651947
---
header: 
  seq: 282200
  stamp: 
    secs: 1668121530
    nsecs: 750858439
  frame_id: "ti_mmwave"
point_id: 18
x: 0.08203125
y: -0.0078125
z: 0.00390625
range: 0.0871539413929
velocity: 0.0
doppler_bin: 8
bearing: -5.44033241272
intensity: 29.5230808258
---
header: 
  seq: 282201
  stamp: 
    secs: 1668121530
    nsecs: 780549073
  frame_id: "ti_mmwave"
point_id: 1
x: 0.01953125
y: 0.080078125
z: -0.0078125
range: 0.0871539413929
velocity: 0.0
doppler_bin: 8
bearing: 76.2930374146
intensity: 31.3861846924
---
header: 
  seq: 282202
  stamp: 
    secs: 1668121530
    nsecs: 780583917
  frame_id: "ti_mmwave"
point_id: 2
x: 0.029296875
y: 0.119140625
z: -0.0078125
range: 0.130730912089
velocity: 0.0
doppler_bin: 8
bearing: 76.1849746704
intensity: 30.0560951233
---
header: 
  seq: 282203
  stamp: 
    secs: 1668121530
    nsecs: 780593606
  frame_id: "ti_mmwave"
point_id: 3
x: 0.595703125
y: -0.34765625
z: 0.09375
range: 0.740808486938
velocity: 0.0
doppler_bin: 8
bearing: -30.2681159973
intensity: 28.8536128998
---
header: 
  seq: 282204
  stamp: 
    secs: 1668121530
    nsecs: 780637117
  frame_id: "ti_mmwave"
point_id: 4
x: 0.62890625
y: -0.3671875
z: 0.1015625
range: 0.784385442734
velocity: 0.0
doppler_bin: 8
bearing: -30.2785606384
intensity: 29.5230808258
---
header: 
  seq: 282205
  stamp: 
    secs: 1668121530
    nsecs: 780644758
  frame_id: "ti_mmwave"
point_id: 5
x: 0.638671875
y: -0.412109375
z: 0.162109375
range: 0.827962458134
velocity: 0.0
doppler_bin: 8
bearing: -32.8325309753
intensity: 27.0243053436
---
header: 
  seq: 282206
  stamp: 
    secs: 1668121530
    nsecs: 780651258
  frame_id: "ti_mmwave"
point_id: 6
x: 0.8046875
y: -0.267578125
z: 0.138671875
range: 0.915116369724
velocity: 0.0
doppler_bin: 8
bearing: -18.3932170868
intensity: 27.2509460449
---
header: 
  seq: 282207
  stamp: 
    secs: 1668121530
    nsecs: 780657075
  frame_id: "ti_mmwave"
point_id: 7
x: 0.974609375
y: -0.060546875
z: 0.095703125
range: 1.04584729671
velocity: 0.0
doppler_bin: 8
bearing: -3.55488872528
intensity: 28.0685806274
---
header: 
  seq: 282208
  stamp: 
    secs: 1668121530
    nsecs: 780662506
  frame_id: "ti_mmwave"
point_id: 8
x: 1.0
y: -0.03125
z: 0.208984375
range: 1.08942425251
velocity: 0.0
doppler_bin: 8
bearing: -1.7899106741
intensity: 28.3947811127
---
header: 
  seq: 282209
  stamp: 
    secs: 1668121530
    nsecs: 780668608
  frame_id: "ti_mmwave"
point_id: 9
x: 1.02734375
y: -0.033203125
z: 0.275390625
range: 1.13300120831
velocity: 0.0
doppler_bin: 8
bearing: -1.85112047195
intensity: 27.8175544739
---
header: 
  seq: 282210
  stamp: 
    secs: 1668121530
    nsecs: 780677089
  frame_id: "ti_mmwave"
point_id: 10
x: 1.04296875
y: -0.0
z: 0.36328125
range: 1.1765781641
velocity: 0.0
doppler_bin: 8
bearing: -0.0
intensity: 25.4530715942
---
header: 
  seq: 282211
  stamp: 
    secs: 1668121530
    nsecs: 780683678
  frame_id: "ti_mmwave"
point_id: 11
x: 7.927734375
y: 0.248046875
z: -0.236328125
range: 8.45393276215
velocity: 0.0
doppler_bin: 8
bearing: 1.79211401939
intensity: 28.9153747559
---
header: 
  seq: 282212
  stamp: 
    secs: 1668121530
    nsecs: 780689794
  frame_id: "ti_mmwave"
point_id: 12
x: 7.9609375
y: 0.25
z: -0.431640625
range: 8.49750900269
velocity: 0.0
doppler_bin: 8
bearing: 1.79868757725
intensity: 33.7106781006
---
header: 
  seq: 282213
  stamp: 
    secs: 1668121530
    nsecs: 780694403
  frame_id: "ti_mmwave"
point_id: 13
x: 8.001953125
y: 0.25
z: -0.443359375
range: 8.5410861969
velocity: 0.0
doppler_bin: 8
bearing: 1.78947401047
intensity: 34.4388847351
---
header: 
  seq: 282214
  stamp: 
    secs: 1668121530
    nsecs: 780704499
  frame_id: "ti_mmwave"
point_id: 14
x: 8.0546875
y: 0.251953125
z: -0.005859375
range: 8.58466339111
velocity: 0.0
doppler_bin: 8
bearing: 1.79164552689
intensity: 31.2613143921
---
header: 
  seq: 282215
  stamp: 
    secs: 1668121530
    nsecs: 780711925
  frame_id: "ti_mmwave"
point_id: 15
x: 8.04296875
y: -0.759765625
z: -0.58203125
range: 8.62824058533
velocity: 0.0
doppler_bin: 8
bearing: -5.39633750916
intensity: 25.7054290771
---
header: 
  seq: 282216
  stamp: 
    secs: 1668121530
    nsecs: 780718246
  frame_id: "ti_mmwave"
point_id: 16
x: 8.046875
y: -1.017578125
z: -0.69921875
range: 8.67181682587
velocity: 0.0
doppler_bin: 8
bearing: -7.20715856552
intensity: 25.7978363037
---
header: 
  seq: 282217
  stamp: 
    secs: 1668121530
    nsecs: 780723790
  frame_id: "ti_mmwave"
point_id: 17
x: 0.041015625
y: -0.001953125
z: 0.0
range: 0.0435769706964
velocity: 0.0
doppler_bin: 8
bearing: -2.7263109684
intensity: 27.7887439728
---
header: 
  seq: 282218
  stamp: 
    secs: 1668121530
    nsecs: 780728876
  frame_id: "ti_mmwave"
point_id: 18
x: 0.08203125
y: -0.0078125
z: 0.00390625
range: 0.0871539413929
velocity: 0.0
doppler_bin: 8
bearing: -5.44033241272
intensity: 29.5182304382
---
header: 
  seq: 282219
  stamp: 
    secs: 1668121530
    nsecs: 780735070
  frame_id: "ti_mmwave"
point_id: 20
x: 0.189453125
y: -3.796875
z: 7.15234375
range: 8.62824058533
velocity: 0.0
doppler_bin: 8
bearing: -87.1434707642
intensity: 23.8738975525
---
header: 
  seq: 282220
  stamp: 
    secs: 1668121530
    nsecs: 810601333
  frame_id: "ti_mmwave"
point_id: 1
x: 0.01953125
y: 0.080078125
z: -0.0078125
range: 0.0871539413929
velocity: 0.0
doppler_bin: 8
bearing: 76.2930374146
intensity: 31.389339447
---
header: 
  seq: 282221
  stamp: 
    secs: 1668121530
    nsecs: 810642170
  frame_id: "ti_mmwave"
point_id: 2
x: 0.029296875
y: 0.119140625
z: -0.0078125
range: 0.130730912089
velocity: 0.0
doppler_bin: 8
bearing: 76.1849746704
intensity: 30.0560951233
---
header: 
  seq: 282222
  stamp: 
    secs: 1668121530
    nsecs: 810649696
  frame_id: "ti_mmwave"
point_id: 3
x: 0.595703125
y: -0.34765625
z: 0.087890625
range: 0.740808486938
velocity: 0.0
doppler_bin: 8
bearing: -30.2681159973
intensity: 28.8081359863
---
header: 
  seq: 282223
  stamp: 
    secs: 1668121530
    nsecs: 810654481
  frame_id: "ti_mmwave"
point_id: 4
x: 0.630859375
y: -0.3671875
z: 0.095703125
range: 0.784385442734
velocity: 0.0
doppler_bin: 8
bearing: -30.201259613
intensity: 29.5904140472
---
header: 
  seq: 282224
  stamp: 
    secs: 1668121530
    nsecs: 810658652
  frame_id: "ti_mmwave"
point_id: 5
x: 0.642578125
y: -0.412109375
z: 0.140625
range: 0.827962458134
velocity: 0.0
doppler_bin: 8
bearing: -32.6735687256
intensity: 26.981004715
---
header: 
  seq: 282225
  stamp: 
    secs: 1668121530
    nsecs: 810671426
  frame_id: "ti_mmwave"
point_id: 6
x: 0.80078125
y: -0.267578125
z: 0.158203125
range: 0.915116369724
velocity: 0.0
doppler_bin: 8
bearing: -18.4768619537
intensity: 26.9635639191
---
header: 
  seq: 282226
  stamp: 
    secs: 1668121530
    nsecs: 810709690
  frame_id: "ti_mmwave"
point_id: 7
x: 0.982421875
y: -0.03125
z: 0.28515625
range: 1.08942425251
velocity: 0.0
doppler_bin: 8
bearing: -1.82191538811
intensity: 28.3821926117
---
header: 
  seq: 282227
  stamp: 
    secs: 1668121530
    nsecs: 810716041
  frame_id: "ti_mmwave"
point_id: 8
x: 1.02734375
y: -0.0
z: 0.27734375
range: 1.13300120831
velocity: 0.0
doppler_bin: 8
bearing: -0.0
intensity: 28.5913829803
---
header: 
  seq: 282228
  stamp: 
    secs: 1668121530
    nsecs: 810720947
  frame_id: "ti_mmwave"
point_id: 9
x: 1.072265625
y: 0.03515625
z: 0.265625
range: 1.1765781641
velocity: 0.0
doppler_bin: 8
bearing: 1.87787723541
intensity: 26.3346843719
---
header: 
  seq: 282229
  stamp: 
    secs: 1668121530
    nsecs: 810725677
  frame_id: "ti_mmwave"
point_id: 10
x: 7.927734375
y: 0.248046875
z: -0.23046875
range: 8.45393276215
velocity: 0.0
doppler_bin: 8
bearing: 1.79211401939
intensity: 28.9431610107
---
header: 
  seq: 282230
  stamp: 
    secs: 1668121530
    nsecs: 810731554
  frame_id: "ti_mmwave"
point_id: 11
x: 7.9609375
y: 0.25
z: -0.431640625
range: 8.49750900269
velocity: 0.0
doppler_bin: 8
bearing: 1.79868757725
intensity: 33.7088317871
---
header: 
  seq: 282231
  stamp: 
    secs: 1668121530
    nsecs: 810739788
  frame_id: "ti_mmwave"
point_id: 12
x: 8.001953125
y: 0.25
z: -0.439453125
range: 8.5410861969
velocity: 0.0
doppler_bin: 8
bearing: 1.78947401047
intensity: 34.4295005798
---
header: 
  seq: 282232
  stamp: 
    secs: 1668121530
    nsecs: 810748808
  frame_id: "ti_mmwave"
point_id: 13
x: 8.0546875
y: 0.251953125
z: 0.013671875
range: 8.58466339111
velocity: 0.0
doppler_bin: 8
bearing: 1.79164552689
intensity: 31.1826477051
---
header: 
  seq: 282233
  stamp: 
    secs: 1668121530
    nsecs: 810758490
  frame_id: "ti_mmwave"
point_id: 14
x: 8.046875
y: -0.759765625
z: -0.51171875
range: 8.62824058533
velocity: 0.0
doppler_bin: 8
bearing: -5.3937330246
intensity: 25.1321754456
---
header: 
  seq: 282234
  stamp: 
    secs: 1668121530
    nsecs: 810770502
  frame_id: "ti_mmwave"
point_id: 15
x: 8.056640625
y: -1.017578125
z: -0.556640625
range: 8.67181682587
velocity: 0.0
doppler_bin: 8
bearing: -7.19851398468
intensity: 25.4282550812
---
header: 
  seq: 282235
  stamp: 
    secs: 1668121530
    nsecs: 810796858
  frame_id: "ti_mmwave"
point_id: 16
x: 0.041015625
y: -0.001953125
z: 0.0
range: 0.0435769706964
velocity: 0.0
doppler_bin: 8
bearing: -2.7263109684
intensity: 27.7959651947
---
header: 
  seq: 282236
  stamp: 
    secs: 1668121530
    nsecs: 810803333
  frame_id: "ti_mmwave"
point_id: 17
x: 0.08203125
y: -0.0078125
z: 0.00390625
range: 0.0871539413929
velocity: 0.0
doppler_bin: 8
bearing: -5.44033241272
intensity: 29.5230808258
---
header: 
  seq: 282237
  stamp: 
    secs: 1668121530
    nsecs: 840581506
  frame_id: "ti_mmwave"
point_id: 1
x: 0.01953125
y: 0.080078125
z: -0.0078125
range: 0.0871539413929
velocity: 0.0
doppler_bin: 8
bearing: 76.2930374146
intensity: 31.389339447
---
header: 
  seq: 282238
  stamp: 
    secs: 1668121530
    nsecs: 840623416
  frame_id: "ti_mmwave"
point_id: 2
x: 0.029296875
y: 0.119140625
z: -0.0078125
range: 0.130730912089
velocity: 0.0
doppler_bin: 8
bearing: 76.1849746704
intensity: 30.0518054962
---
header: 
  seq: 282239
  stamp: 
    secs: 1668121530
    nsecs: 840634297
  frame_id: "ti_mmwave"
point_id: 3
x: 0.595703125
y: -0.34765625
z: 0.0859375
range: 0.740808486938
velocity: 0.0
doppler_bin: 8
bearing: -30.2681159973
intensity: 28.444770813
---
header: 
  seq: 282240
  stamp: 
    secs: 1668121530
    nsecs: 840676026
  frame_id: "ti_mmwave"
point_id: 4
x: 0.619140625
y: -0.390625
z: 0.072265625
range: 0.784385442734
velocity: 0.0
doppler_bin: 8
bearing: -32.2484359741
intensity: 29.0308990479
---
header: 
  seq: 282241
  stamp: 
    secs: 1668121530
    nsecs: 840684793
  frame_id: "ti_mmwave"
point_id: 5
x: 0.95703125
y: -0.0
z: 0.359375
range: 1.08942425251
velocity: 0.0
doppler_bin: 8
bearing: -0.0
intensity: 26.7851829529
---
header: 
  seq: 282242
  stamp: 
    secs: 1668121530
    nsecs: 840691513
  frame_id: "ti_mmwave"
point_id: 6
x: 1.025390625
y: -0.0
z: 0.283203125
range: 1.13300120831
velocity: 0.0
doppler_bin: 8
bearing: -0.0
intensity: 27.8390350342
---
header: 
  seq: 282243
  stamp: 
    secs: 1668121530
    nsecs: 840698045
  frame_id: "ti_mmwave"
point_id: 7
x: 1.07421875
y: 0.03515625
z: 0.25390625
range: 1.1765781641
velocity: 0.0
doppler_bin: 8
bearing: 1.87446534634
intensity: 26.1595001221
---
header: 
  seq: 282244
  stamp: 
    secs: 1668121530
    nsecs: 840704595
  frame_id: "ti_mmwave"
point_id: 8
x: 7.927734375
y: 0.248046875
z: -0.23828125
range: 8.45393276215
velocity: 0.0
doppler_bin: 8
bearing: 1.79211401939
intensity: 28.8930168152
---
header: 
  seq: 282245
  stamp: 
    secs: 1668121530
    nsecs: 840710903
  frame_id: "ti_mmwave"
point_id: 9
x: 7.9609375
y: 0.25
z: -0.443359375
range: 8.49750900269
velocity: 0.0
doppler_bin: 8
bearing: 1.79868757725
intensity: 33.6342391968
---
header: 
  seq: 282246
  stamp: 
    secs: 1668121530
    nsecs: 840717511
  frame_id: "ti_mmwave"
point_id: 10
x: 8.0
y: 0.25
z: -0.45703125
range: 8.5410861969
velocity: 0.0
doppler_bin: 8
bearing: 1.7899106741
intensity: 34.3168525696
---
header: 
  seq: 282247
  stamp: 
    secs: 1668121530
    nsecs: 840724133
  frame_id: "ti_mmwave"
point_id: 11
x: 8.0546875
y: 0.251953125
z: 0.0078125
range: 8.58466339111
velocity: 0.0
doppler_bin: 8
bearing: 1.79164552689
intensity: 31.0105934143
---
header: 
  seq: 282248
  stamp: 
    secs: 1668121530
    nsecs: 840737309
  frame_id: "ti_mmwave"
point_id: 12
x: 8.05078125
y: -0.759765625
z: -0.470703125
range: 8.62824058533
velocity: 0.0
doppler_bin: 8
bearing: -5.39113092422
intensity: 25.4157924652
---
header: 
  seq: 282249
  stamp: 
    secs: 1668121530
    nsecs: 840747925
  frame_id: "ti_mmwave"
point_id: 13
x: 8.09765625
y: -0.763671875
z: -0.35546875
range: 8.67181682587
velocity: 0.0
doppler_bin: 8
bearing: -5.38750267029
intensity: 25.7863922119
---
header: 
  seq: 282250
  stamp: 
    secs: 1668121530
    nsecs: 840758263
  frame_id: "ti_mmwave"
point_id: 14
x: 0.041015625
y: -0.001953125
z: 0.0
range: 0.0435769706964
velocity: 0.0
doppler_bin: 8
bearing: -2.7263109684
intensity: 27.7887439728
---
header: 
  seq: 282251
  stamp: 
    secs: 1668121530
    nsecs: 840766994
  frame_id: "ti_mmwave"
point_id: 15
x: 0.08203125
y: -0.0078125
z: 0.00390625
range: 0.0871539413929
velocity: 0.0
doppler_bin: 8
bearing: -5.44033241272
intensity: 29.5182304382
---
header: 
  seq: 282252
  stamp: 
    secs: 1668121530
    nsecs: 870629186
  frame_id: "ti_mmwave"
point_id: 1
x: 0.01953125
y: 0.080078125
z: -0.0078125
range: 0.0871539413929
velocity: 0.0
doppler_bin: 8
bearing: 76.2930374146
intensity: 31.389339447
---
header: 
  seq: 282253
  stamp: 
    secs: 1668121530
    nsecs: 870689359
  frame_id: "ti_mmwave"
point_id: 2
x: 0.029296875
y: 0.119140625
z: -0.0078125
range: 0.130730912089
velocity: 0.0
doppler_bin: 8
bearing: 76.1849746704
intensity: 30.0560951233
---
header: 
  seq: 282254
  stamp: 
    secs: 1668121530
    nsecs: 870704003
  frame_id: "ti_mmwave"
point_id: 3
x: 0.59765625
y: -0.34765625
z: 0.08203125
range: 0.740808486938
velocity: 0.0
doppler_bin: 8
bearing: -30.1865367889
intensity: 28.4633712769
---
header: 
  seq: 282255
  stamp: 
    secs: 1668121530
    nsecs: 870713448
  frame_id: "ti_mmwave"
point_id: 4
x: 0.62109375
y: -0.390625
z: 0.0625
range: 0.784385442734
velocity: 0.0
doppler_bin: 8
bearing: -32.1670532227
intensity: 28.8874092102
---
header: 
  seq: 282256
  stamp: 
    secs: 1668121530
    nsecs: 870755510
  frame_id: "ti_mmwave"
point_id: 5
x: 1.041015625
y: -0.0
z: 0.21484375
range: 1.13300120831
velocity: 0.0
doppler_bin: 8
bearing: -0.0
intensity: 26.9983768463
---
header: 
  seq: 282257
  stamp: 
    secs: 1668121530
    nsecs: 870763289
  frame_id: "ti_mmwave"
point_id: 6
x: 1.0859375
y: 0.03515625
z: 0.203125
range: 1.1765781641
velocity: 0.0
doppler_bin: 8
bearing: 1.85425162315
intensity: 25.7978363037
---
header: 
  seq: 282258
  stamp: 
    secs: 1668121530
    nsecs: 870769589
  frame_id: "ti_mmwave"
point_id: 7
x: 7.927734375
y: 0.248046875
z: -0.240234375
range: 8.45393276215
velocity: 0.0
doppler_bin: 8
bearing: 1.79211401939
intensity: 28.8930168152
---
header: 
  seq: 282259
  stamp: 
    secs: 1668121530
    nsecs: 870775519
  frame_id: "ti_mmwave"
point_id: 8
x: 7.9609375
y: 0.25
z: -0.4375
range: 8.49750900269
velocity: 0.0
doppler_bin: 8
bearing: 1.79868757725
intensity: 33.6361198425
---
header: 
  seq: 282260
  stamp: 
    secs: 1668121530
    nsecs: 870781496
  frame_id: "ti_mmwave"
point_id: 9
x: 8.001953125
y: 0.25
z: -0.447265625
range: 8.5410861969
velocity: 0.0
doppler_bin: 8
bearing: 1.78947401047
intensity: 34.3328971863
---
header: 
  seq: 282261
  stamp: 
    secs: 1668121530
    nsecs: 870788069
  frame_id: "ti_mmwave"
point_id: 10
x: 8.0546875
y: 0.251953125
z: 0.015625
range: 8.58466339111
velocity: 0.0
doppler_bin: 8
bearing: 1.79164552689
intensity: 31.0105934143
---
header: 
  seq: 282262
  stamp: 
    secs: 1668121530
    nsecs: 870798304
  frame_id: "ti_mmwave"
point_id: 11
x: 8.05078125
y: -0.759765625
z: -0.451171875
range: 8.62824058533
velocity: 0.0
doppler_bin: 8
bearing: -5.39113092422
intensity: 25.490032196
---
header: 
  seq: 282263
  stamp: 
    secs: 1668121530
    nsecs: 870809012
  frame_id: "ti_mmwave"
point_id: 12
x: 8.072265625
y: -1.017578125
z: -0.28515625
range: 8.67181682587
velocity: 0.0
doppler_bin: 8
bearing: -7.18472528458
intensity: 25.5388298035
---
header: 
  seq: 282264
  stamp: 
    secs: 1668121530
    nsecs: 870817305
  frame_id: "ti_mmwave"
point_id: 13
x: 0.041015625
y: -0.001953125
z: 0.0
range: 0.0435769706964
velocity: 0.0
doppler_bin: 8
bearing: -2.7263109684
intensity: 27.7887439728
---
header: 
  seq: 282265
  stamp: 
    secs: 1668121530
    nsecs: 870823902
  frame_id: "ti_mmwave"
point_id: 14
x: 0.08203125
y: -0.0078125
z: 0.00390625
range: 0.0871539413929
velocity: 0.0
doppler_bin: 8
bearing: -5.44033241272
intensity: 29.5230808258
---
header: 
  seq: 282266
  stamp: 
    secs: 1668121530
    nsecs: 915744469
  frame_id: "ti_mmwave"
point_id: 1
x: 0.01953125
y: 0.080078125
z: -0.0078125
range: 0.0871539413929
velocity: 0.0
doppler_bin: 8
bearing: 76.2930374146
intensity: 31.3924922943
---
header: 
  seq: 282267
  stamp: 
    secs: 1668121530
    nsecs: 915810737
  frame_id: "ti_mmwave"
point_id: 2
x: 0.029296875
y: 0.119140625
z: -0.0078125
range: 0.130730912089
velocity: 0.0
doppler_bin: 8
bearing: 76.1849746704
intensity: 30.0560951233
---
header: 
  seq: 282268
  stamp: 
    secs: 1668121530
    nsecs: 915830541
  frame_id: "ti_mmwave"
point_id: 3
x: 0.59765625
y: -0.34765625
z: 0.078125
range: 0.740808486938
velocity: 0.0
doppler_bin: 8
bearing: -30.1865367889
intensity: 28.2930374146
---
header: 
  seq: 282269
  stamp: 
    secs: 1668121530
    nsecs: 915846237
  frame_id: "ti_mmwave"
point_id: 4
x: 0.634765625
y: -0.3671875
z: 0.064453125
range: 0.784385442734
velocity: 0.0
doppler_bin: 8
bearing: -30.0477294922
intensity: 28.645111084
---
header: 
  seq: 282270
  stamp: 
    secs: 1668121530
    nsecs: 915861521
  frame_id: "ti_mmwave"
point_id: 5
x: 7.927734375
y: 0.248046875
z: -0.232421875
range: 8.45393276215
velocity: 0.0
doppler_bin: 8
bearing: 1.79211401939
intensity: 28.9042110443
---
header: 
  seq: 282271
  stamp: 
    secs: 1668121530
    nsecs: 915913985
  frame_id: "ti_mmwave"
point_id: 6
x: 7.9609375
y: 0.25
z: -0.4375
range: 8.49750900269
velocity: 0.0
doppler_bin: 8
bearing: 1.79868757725
intensity: 33.6604919434
---
header: 
  seq: 282272
  stamp: 
    secs: 1668121530
